,venue,address,latitude,longitude,neighborhood,category
0,McDonald's,13749 N Highway 183,30.459677180784187,-97.7923897607343,ANDERSON MILL,Fast Food Restaurant
1,P. Terry's Burger Stand,13770 N Highway 183,30.461215000292796,-97.79530438820866,ANDERSON MILL,Burger Joint
2,Pluckers Wing Bar,11066 Pecan Park Blvd Ste G,30.4684692,-97.8035405,AVERY RANCH--LAKELINE,Wings Joint
3,The Halal Gurus,13729 US-183 suite 890,30.458305,-97.79193,ANDERSON MILL,Middle Eastern Restaurant
4,Texas Roadhouse,"13435 N. US 183 SVRD NB, Bldg. 7",30.447093,-97.788729,ANDERSON MILL,Steakhouse
5,Kerbey Lane Cafe,13435 N Highway 183,30.447005,-97.788702,ANDERSON MILL,Café
6,Thundercloud Subs,13776 U.S. 183,30.46162856,-97.7956513,ANDERSON MILL,Sandwich Place
7,Olive Garden,12827 Ranch Road 620 N,30.466001736750666,-97.80211322666295,ANDERSON MILL,Italian Restaurant
8,Big City Bagels & Subs,,30.446662,-97.806621,ANDERSON MILL,Bagel Shop
9,Chili's Grill & Bar,11012 Pecan Park Boulevard,30.46740481,-97.80385875,AVERY RANCH--LAKELINE,Tex-Mex Restaurant
10,Auntie Anne's,11200 Lakeline Mall Dr Spc OJ09,30.469973631868655,-97.80720310519791,AVERY RANCH--LAKELINE,Snack Place
11,Cheddars,13301 N Highway 183 #B,30.445990607362948,-97.78778082421087,ANDERSON MILL,American Restaurant
12,Panda Express Lakeline Mall,11200 Lakeline Mall Dr,30.47054355853244,-97.80698893037788,AVERY RANCH--LAKELINE,Chinese Restaurant
13,McDonald's,12801 Ranch Road 620 N,30.465482563737247,-97.80317634344101,ANDERSON MILL,Fast Food Restaurant
14,La Tapatia,13450 N Highway 183,30.4471163,-97.7908036,ANDERSON MILL,Taco Place
15,Burger King,13450 Highway 183 North,30.4478177,-97.7910971,ANDERSON MILL,Fast Food Restaurant
16,Lakeline Mall Food Court,11200 Lakeline Mall Dr,30.4705425276649,-97.80700697556819,AVERY RANCH--LAKELINE,Food Court
17,Interstellar Bbq,12233 Ranch Road 620 N Ste 150,30.461178,-97.81493,ANDERSON MILL,BBQ Joint
18,Vazquez Tacos,13729 US 183,30.45855038883792,-97.79216874382517,ANDERSON MILL,Mexican Restaurant
19,Wendy’s,10203 Lake Creek Pkwy,30.461563778528248,-97.79218950192444,ANDERSON MILL,Fast Food Restaurant
20,Bush's Chicken,12332 Ranch Road 620 N,30.463914542142078,-97.81205481216462,ANDERSON MILL,Fried Chicken Joint
21,Mod Pizza,11521 North Farm Market 620,30.45282861,-97.82628825,ANDERSON MILL,Pizza Place
22,Reale's Pizza & Cafe,13450 N Highway 183,30.44658739368826,-97.79101395144207,ANDERSON MILL,Pizza Place
23,Texican Cafe,11066 Pecan Park Blvd,30.47102160526068,-97.80125866732658,AVERY RANCH--LAKELINE,Mexican Restaurant
24,Cabo Bob’s,13429 N Highway 183 Ste 100,30.447433,-97.789131,ANDERSON MILL,Taco Place
25,Moonie's Burger House - Anderson Mill,13450 Research Blvd,30.44785113291792,-97.7922895273434,ANDERSON MILL,Burger Joint
26,Schlotzsky's,13201 Ranch Road 620 N,30.46839007441341,-97.79439675113493,AVERY RANCH--LAKELINE,Restaurant
27,Tarka Indian Kitchen,11066 Pecan Park Blvd,30.470155872449226,-97.80080860146573,AVERY RANCH--LAKELINE,Indian Restaurant
28,Lone Star Kolaches,13764 N Highway 183,30.460663662328468,-97.79471770584945,ANDERSON MILL,Breakfast Spot
29,IHOP,"13201 Ranch Rd 620 N, Bldg Q",30.467690773946302,-97.79530805755779,AVERY RANCH--LAKELINE,Breakfast Spot
30,McDonald's,5355 N Interregional Hwy,30.31323,-97.707413,WINDSOR PARK,Fast Food Restaurant
31,5610 Food Co,"5610 N I-35 Service Rd, Austin, TX 78751, United States",30.316143,-97.708403,NORTH LOOP,Food Court
32,Whataburger,6106 Cameron Rd,30.319230655633515,-97.69820635020324,WINDSOR PARK,Burger Joint
33,P. Terry's Burger Stand,5701 N IH 35,30.317315765440842,-97.70688362645078,WINDSOR PARK,Burger Joint
34,Torchy's Tacos,1801 E 51st St Bldg D,30.303292,-97.6988397,RMMA,Taco Place
35,Popeyes Louisiana Kitchen,5630 Cameron Rd,30.31452536995113,-97.70358365757991,WINDSOR PARK,Fried Chicken Joint
36,Sonic Drive-In,6208 Cameron Rd,30.3201911,-97.6972101,WINDSOR PARK,Fast Food Restaurant
37,Taco Bell,5604 Cameron Rd,30.31415553514502,-97.70395081676764,WINDSOR PARK,Fast Food Restaurant
38,Church's Chicken,5339 Cameron Rd,30.31141698731254,-97.7066031912234,WINDSOR PARK,Fried Chicken Joint
39,Hank’s,5811 Berkman Dr,30.312589063509837,-97.69292663872693,WINDSOR PARK,Restaurant
40,Kerbey Lane Cafe,2200 Aldrich St Ste 100,30.3010368,-97.7035713,RMMA,Breakfast Spot
41,Buffet King,5451 North IH 35,30.315279,-97.707292,WINDSOR PARK,American Restaurant
42,Amaya's Taco Village,5804 N Interstate 35,30.319260926962304,-97.70806047039969,NORTH LOOP,Mexican Restaurant
43,Pokeatery,1201 Barbara Jordan Blvd Ste 1410,30.305647521911208,-97.70818422221839,RMMA,Hawaiian Restaurant
44,Thundercloud Subs,6501 W Highway 290,30.3215764034385,-97.70530320911728,WINDSOR PARK,Sandwich Place
45,Cenote Cameron,6214 Cameron Rd,30.32038451282098,-97.69674165845235,WINDSOR PARK,Café
46,Chi'lantro,1201 Barbara Jordan Blvd #1460,30.305347,-97.708244,RMMA,Korean Restaurant
47,Rebel Cheese,2200 Aldrich St Ste 120,30.301426,-97.703186,RMMA,Vegetarian / Vegan Restaurant
48,B.D. Riley's Irish Pub at Mueller,1905 Aldrich St.,30.298152656908346,-97.70512148737907,RMMA,Irish Pub
49,Chipotle Mexican Grill,1201 Barbara Jordan Blvd Ste 1300,30.305612013317596,-97.70798119297666,RMMA,Mexican Restaurant
50,Hill-Bert's Burgers,5340 Cameron Rd,30.31199975059126,-97.70682906951036,WINDSOR PARK,Burger Joint
51,Xian Sushi & Noodle,1801 E 51st St #C370,30.30284128293787,-97.69908232723816,RMMA,Noodle House
52,The Kebab Shop,1201 Barbara Jordan Blvd #200,30.3057763,-97.7097641,RMMA,Modern European Restaurant
53,Taqueria Mi Trailita,5301 Manor Rd,30.30029500192563,-97.68569297068385,PECAN SPRINGS-SPRINGDALE,Food Truck
54,Paco's Tacos,1304 E 51st St,30.307455206659316,-97.70580926394908,WINDSOR PARK,Taco Place
55,Colleen's Kitchen,1911 Aldrich St Ste 100,30.298371458367573,-97.70484738925455,RMMA,American Restaurant
56,A&W / Long John Silver's,Capital Plaza,30.313831113767947,-97.70445211878894,WINDSOR PARK,Fast Food Restaurant
57,Café Mueller by H-E-B,1801 E 51st St,30.3011594,-97.6990618,RMMA,Restaurant
58,SH Donuts,Manor Rd,30.30058727876479,-97.68522938841375,PECAN SPRINGS-SPRINGDALE,Donut Shop
59,TJ's Seafood,7110 Cameron Rd,30.325895000000003,-97.69317099999999,ST. JOHNS,Seafood Restaurant
60,Chick-fil-A,"500 E Ben White Blvd, Building B",30.2203776,-97.7571135,ST. EDWARDS,Fast Food Restaurant
61,McDonald's,3909 S Congress Ave,30.223638894338098,-97.76283659040928,ST. EDWARDS,Fast Food Restaurant
62,P. Terry's Burger Stand,204 W Ben White Blvd,30.224155297452803,-97.76433582183056,DAWSON,Burger Joint
63,Loro,2115 S Lamar Blvd,30.24768796450878,-97.77146746540994,SOUTH LAMAR,BBQ Joint
64,Wendy’s,4115 S Congress Ave,30.221728779844366,-97.76416338981562,EAST CONGRESS,Fast Food Restaurant
65,McDonald's,710 E Ben White Blvd,30.2203402,-97.7537139,ST. EDWARDS,Fast Food Restaurant
66,Torchy's Tacos,1822 S Congress Ave,30.2454642,-97.7515802,BOULDIN CREEK,Taco Place
67,Cabo Bob's,500 E Ben White Blvd,30.220967726565352,-97.75688790402899,ST. EDWARDS,Burrito Place
68,Bill Miller Bar-B-Q,709 E. Ben White,30.21792179885939,-97.75588351750356,EAST CONGRESS,Cuban Restaurant
69,Pueblo Viejo,121 Pickle Rd,30.22700709161109,-97.76231670797571,DAWSON,Food Truck
70,Plaza Colombian Coffee,3842 S Congress Ave,30.224736,-97.763587,DAWSON,Café
71,Magnolia Cafe South,1920 S Congress Ave,30.24452085910187,-97.75182144878777,BOULDIN CREEK,Diner
72,Fresa's Chicken Al Carbon,1703 S 1st St,30.24785207293409,-97.75501981129575,BOULDIN CREEK,Restaurant
73,Donn's Bar-B-Que & Catering,2617 S Interstate 35,30.229557211252235,-97.74292480367666,PARKER LANE,BBQ Joint
74,The Meteor,2110 S Congress Ave,30.242776,-97.752363,BOULDIN CREEK,Café
75,Gourdough's,1503 S 1st St,30.24950919099921,-97.7549704719153,BOULDIN CREEK,Donut Shop
76,Phoebe's Diner,533 W. Oltorf St,30.241796258663893,-97.75922149104917,DAWSON,Comfort Food Restaurant
77,El Tacorrido,2316 S 1st St,30.242513777659596,-97.75956330071382,BOULDIN CREEK,Taco Place
78,LeRoy & Lewis,121 Pickle Rd,30.22695212601917,-97.7624550039605,DAWSON,BBQ Joint
79,The Halal Gurus,539 W Oltorf St,30.2416620587288,-97.75944828987122,DAWSON,Halal Restaurant
80,June's,1722 S Congress Ave,30.24624114041153,-97.75102090919994,BOULDIN CREEK,French Restaurant
81,Polvos Mexican Restaurant,2004 S 1st St,30.24539931044173,-97.75723355347826,BOULDIN CREEK,Mexican Restaurant
82,Lucy's Fried Chicken,2218 College Ave,30.240559427232125,-97.75331575174197,BOULDIN CREEK,Fried Chicken Joint
83,Elizabeth St. Café,1501 S 1st St,30.24982842100761,-97.75482850985779,BOULDIN CREEK,Vietnamese Restaurant
84,Con Madre Kitchen,628 E Oltorf St,30.23706803659032,-97.74887638713929,SOUTH RIVER CITY,Mexican Restaurant
85,Curra's Grill,614 E Oltorf St,30.236976035910054,-97.74929354845801,SOUTH RIVER CITY,Mexican Restaurant
86,South Congress Cafe,1600 S Congress Ave,30.247824424523518,-97.75056149869016,BOULDIN CREEK,Café
87,Casa Maria Restaurant & Bakery,4327 S 1st St,30.221249210127436,-97.77252295112694,WEST CONGRESS,Mexican Restaurant
88,Jersey Mike's Subs,"600 E. Ben White, Suite 350, Corner Of Ih-35Fwy And Ben White",30.219742,-97.756132,ST. EDWARDS,Sandwich Place
89,Vinaigrette,2201 College Ave,30.241303984559963,-97.75228910328605,SOUTH RIVER CITY,Salad Place
90,Chick-fil-A,503 W Martin Luther King Jr Blvd,30.2817364,-97.7431552,DOWNTOWN,Fast Food Restaurant
91,Raising Cane's Chicken Fingers,415 W Martin Luther King Jr Blvd,30.28170399188964,-97.74246941305817,DOWNTOWN,Fried Chicken Joint
92,Whataburger,2800 Guadalupe St,30.2934513667687,-97.74216547608376,WEST UNIVERSITY,Burger Joint
93,Pluckers Wing Bar,2222 Rio Grande St Ste D116,30.2862799,-97.7449912,WEST UNIVERSITY,Wings Joint
94,Dining Room at UT Club,2108 Robert Dedman Dr,30.283982,-97.732493,UT,American Restaurant
95,Rudy's Country Store & Bar-B-Q,3914 N Lamar Blvd,30.3074083,-97.7421901,ROSEDALE,BBQ Joint
96,Space24Twenty @ UO,2420 Guadalupe,30.28826922240852,-97.74207076872338,WEST UNIVERSITY,Food Court
97,In-N-Out Burger,2700 Guadalupe St.,30.292203956718865,-97.74155576051996,WEST UNIVERSITY,Fast Food Restaurant
98,Snarf's Sandwiches,"2901 Medical Arts St., Ste. 2",30.28846715506474,-97.7289345770097,HANCOCK,Sandwich Place
99,P. Terry's Burger Stand,3303 N Lamar Blvd,30.30177859284564,-97.74485328113364,WEST UNIVERSITY,Burger Joint
100,Wendy’s,"2247 Guadalupe St, Bldg Rm 2-204",30.28716,-97.741122,UT,Fast Food Restaurant
101,Torchy's Tacos,2801 Guadalupe St Ste 5B,30.293709982194375,-97.74172805255148,NORTH UNIVERSITY,Taco Place
102,Cabo Bob's,2828 Rio Grande St,30.295860957069518,-97.74401532643064,WEST UNIVERSITY,Burrito Place
103,The Pizza Press,"404 W 26th St, Austin, TX 78705",30.290702,-97.742043,WEST UNIVERSITY,Pizza Place
104,Potbelly Sandwich Shop,2316 Guadalupe St,30.2868018,-97.7418666,WEST UNIVERSITY,Sandwich Place
105,Rainey Street Outdoor Food Trucks,,30.2838738927699,-97.74050057194083,UT,Food Truck
106,The Clay Pit,1601 Guadalupe St,30.279001072940464,-97.74245328093936,DOWNTOWN,Indian Restaurant
107,CAVA,2426 Guadalupe St,30.288562248739694,-97.74168442397797,WEST UNIVERSITY,Mediterranean Restaurant
108,Via 313,3016 Guadalupe St,30.29791850205146,-97.74134250045729,WEST UNIVERSITY,Pizza Place
109,Kerbey Lane Café,2606 Guadalupe St,30.29122,-97.7415,WEST UNIVERSITY,Café
110,"Snooze, an A.M. Eatery",3800 North Lamar Blvd Suite 120,30.3059071,-97.7431556,ROSEDALE,Breakfast Spot
111,Black's BBQ,3110 Guadalupe St,30.29848295357906,-97.74128529463646,WEST UNIVERSITY,BBQ Joint
112,Central Market Café,4001 N Lamar Blvd,30.30710935172369,-97.7402104056284,TRIANGLE STATE,Café
113,Einstein Bros Bagels,2404 Guadalupe St,30.287988340600673,-97.74180807553876,WEST UNIVERSITY,Bagel Shop
114,Chipotle Mexican Grill,2230 Guadalupe St #32,30.285652501561877,-97.74203879584996,WEST UNIVERSITY,Mexican Restaurant
115,Vaquero Taquero,,30.29508784839672,-97.73620923302992,NORTH UNIVERSITY,Food Truck
116,Thundercloud Subs,3200 Guadalupe St,30.299353332597423,-97.74051603817888,WEST UNIVERSITY,Sandwich Place
117,Kerbey Lane Café,3704 Kerbey Ln,30.30803,-97.75047,ROSEDALE,Café
118,Kesos Taco House,600 W Martin Luther King Jr Blvd,30.282652072427243,-97.74447836340417,WEST UNIVERSITY,Taco Place
119,Taco Shack,4002 N Lamar Blvd,30.308235032071643,-97.74158074512103,ROSEDALE,Mexican Restaurant
120,McDonald's,1143 1 2 Airport Blvd,30.27231441073107,-97.69689247012138,MLK,Fast Food Restaurant
121,Whataburger,3210 E Martin Luther King Jr Blvd,30.283101944677583,-97.70293951034546,MLK,Burger Joint
122,Taco Bell,1925 Airport Blvd,30.283332194906013,-97.70392126487013,MLK,Fast Food Restaurant
123,Birdie's,2944 E 12th St,30.276402,-97.704575,ROSEWOOD,Restaurant
124,Bird Bird Biscuit,2701 Manor Rd,30.28500944162347,-97.71397245977218,ROSEWOOD,Sandwich Place
125,Golden Chick,1144 E. Airport Blvd.,30.272292179011618,-97.69798645832043,GOVALLE,American Restaurant
126,Nixta Taqueria,2512 E 12th St,30.274993,-97.713258,CHESTNUT,Taco Place
127,SUBWAY,1144 Airport Blvd #200,30.2710474,-97.6978457,GOVALLE,Sandwich Place
128,Batch Craft Beer And Kolaches,3220 Manor Rd,30.287191454768983,-97.70315579167011,MLK,Bakery
129,Terry's Seafood & Chicken,1805 Airport Blvd,30.281512368938007,-97.70298290822353,MLK,Seafood Restaurant
130,Veracruz All Natural,4209 Airport Blvd,30.296589,-97.707243,RMMA,Taco Place
131,Tsuke Edomae,4600 Mueller Blvd Apt 1035,30.298536,-97.707463,RMMA,Japanese Restaurant
132,Love Supreme Pizza Bar,2805 Manor Rd,30.285111,-97.711652,ROSEWOOD,Pizza Place
133,Contigo Austin,2027 Anchor Ln,30.287837686631477,-97.70331988162891,MLK,American Restaurant
134,Jack in the Box,1151 Airport Blvd,30.274166771940934,-97.6977226138115,MLK,Fast Food Restaurant
135,Willie's Bar-B-Que,4505 E Martin Luther King Jr Blvd,30.285226,-97.68416500000001,MLK,BBQ Joint
136,Betos #2 Mexican Restaurant,,30.27391,-97.697147,MLK,Mexican Restaurant
137,Dai Due Butcher Shop & Supper Club,2406 Manor Rd,30.284906130396855,-97.71690416595273,UPPER BOGGY CREEK,American Restaurant
138,Popeyes Louisiana Kitchen,1823 Airport Blvd,30.282125057295303,-97.70312740965525,MLK,Fried Chicken Joint
139,quick stop grocery,,30.27573013305664,-97.70744323730469,ROSEWOOD,Snack Place
140,Short Stop,1144 Airport store #1,30.271963376758777,-97.69787065700275,GOVALLE,Fast Food Restaurant
141,Pizza Hut,1144 Airport Blvd,30.271672655481883,-97.69779221595593,GOVALLE,Pizza Place
142,L'Oca D'Oro,1900 Simond Ave,30.297225,-97.704725,RMMA,Italian Restaurant
143,Fairways Cantina,,30.289319,-97.69441,MLK,Restaurant
144,La Fruta Feliz,3124 Manor Rd,30.286864361979394,-97.70455204543075,MLK,Mexican Restaurant
145,Bao'd Up,1911 Aldrich St # A1,30.29865055386554,-97.70437596382368,RMMA,Chinese Restaurant
146,Taco-Mex,2613 Manor Rd,30.28474708821661,-97.71494477784731,UPPER BOGGY CREEK,Taco Place
147,Whataburger,1616 E Oltorf St,30.2337053,-97.7391881,RIVERSIDE,Burger Joint
148,Terry Black's BBQ,1003 Barton Springs Rd,30.25986,-97.75496,BOULDIN CREEK,BBQ Joint
149,Voodoo Doughnut,212 E 6th St,30.267601825957104,-97.7407854795456,DOWNTOWN,Donut Shop
150,Cooper's Old Time Pit Bar-B-Que,217 Congress Ave,30.26496553144536,-97.74374663829803,DOWNTOWN,BBQ Joint
151,Moonshine Patio Bar & Grill,303 Red River St,30.26382713847388,-97.73813238370305,DOWNTOWN,American Restaurant
152,Veracruz All Natural,,30.2629,-97.744558,DOWNTOWN,Taco Place
153,Whataburger,601 Barton Springs Rd,30.258047817575996,-97.75069624185562,BOULDIN CREEK,Burger Joint
154,IHOP,707 E Cesar Chavez,30.261115063536593,-97.73726304572291,DOWNTOWN,Breakfast Spot
155,Home Slice Pizza,1415 S Congress Ave,30.24900396437326,-97.74975817165536,SOUTH RIVER CITY,Pizza Place
156,Güero's Taco Bar,1412 S Congress Ave,30.24916,-97.75021,BOULDIN CREEK,Mexican Restaurant
157,Ramen Tatsu-ya,1234 S Lamar Blvd,30.25389531735043,-97.76313448192407,ZILKER,Ramen Restaurant
158,Torchy’s Tacos,110 San Antonio St #120,30.2657051,-97.7496338,DOWNTOWN,Taco Place
159,Gus's World Famous Fried Chicken,117 San Jacinto Blvd,30.263475,-97.741676,DOWNTOWN,Fried Chicken Joint
160,Aba Austin,1011 S Congress Ave,30.253928,-97.747656,SOUTH RIVER CITY,Restaurant
161,Stella San Jac,310 E 5th St,30.266622,-97.740375,DOWNTOWN,Restaurant
162,P. Terry's Burger Stand,404 S Lamar Blvd,30.26168184496109,-97.75854342523931,ZILKER,Burger Joint
163,Two Hands,,30.253441,-97.747912,SOUTH RIVER CITY,Café
164,Red Ash,303 Colorado St,30.26558414895398,-97.74496619990391,DOWNTOWN,Italian Restaurant
165,Iron Works BBQ,100 Red River St,30.26194518814984,-97.7388792026269,DOWNTOWN,BBQ Joint
166,The Peacock,,30.266044,-97.750168,DOWNTOWN,Mediterranean Restaurant
167,Anthem,91 Rainey St Ste 120,30.26075764408574,-97.73810789910993,DOWNTOWN,American Restaurant
168,North Italia,500 W 2nd St,30.265800454402395,-97.7491856783774,DOWNTOWN,Italian Restaurant
169,Comedor,501 Colorado St,30.267906,-97.743937,DOWNTOWN,Mexican Restaurant
170,1618 Asian Fusion,1618 E Riverside Dr,30.245418,-97.730483,RIVERSIDE,Asian Restaurant
171,Rosita’s Al Pastor Taco Truck,1911 E Riverside Dr,30.243348725231588,-97.72917073043418,RIVERSIDE,Food Truck
172,Parkside,301 E 6th St,30.26732971273354,-97.74036863521285,DOWNTOWN,New American Restaurant
173,Hopdoddy Burger Bar,1400 S Congress Ave Ste A190,30.2496468,-97.7499054,BOULDIN CREEK,Burger Joint
174,Iron Cactus Mexican Restaurant and Margarita Bar,606 Trinity St,30.26734,-97.73941,DOWNTOWN,Mexican Restaurant
175,The Onion,116 W 5th St,30.266492856552876,-97.74201465701637,DOWNTOWN,Pizza Place
176,Burger King,Farm-to-market 969,30.2861882410796,-97.6639375090599,MLK-183,Fast Food Restaurant
177,El Norteno Pollos Asados,,30.284474,-97.659417,MLK-183,Taco Place
178,SUBWAY,6105 Techni Center Dr,30.2757618616383,-97.66897544265976,MLK-183,Sandwich Place
179,Country Boyz Fixins,4140 E 12th St,30.279231766371506,-97.68721815039073,MLK,Cajun / Creole Restaurant
180,Blimpie,6105 Techni Center Dr,30.275794982910156,-97.66880798339844,MLK-183,Fast Food Restaurant
181,La cocinita restaurante,4140 E 12th St,30.27922248840332,-97.6871566772461,MLK,Mexican Restaurant
182,Tocho Morocho,,30.28471161471889,-97.65828402281525,MLK-183,Food Truck
183,Simon’s Burger,,30.28482,-97.683636,MLK,Burger Joint
184,Ted's Farm Bbq,,30.277224363712385,-97.66949644089931,MLK-183,Food Truck
185,Tracor Cafe,6500 Tracor Ln,30.27794647216797,-97.6622314453125,MLK-183,American Restaurant
186,Galaxy Cafe,1000 W Lynn St,30.279319982407912,-97.7599910547402,OLD WEST AUSTIN,American Restaurant
187,Dirty Martin's Place,2808 Guadalupe St,30.294073020408643,-97.74239535318311,WEST UNIVERSITY,Burger Joint
188,Tiny's Milk And Cookies,,30.305971,-97.74995,WINDSOR ROAD,Bakery
189,Chuy's Tex-Mex,1728 Barton Springs Rd,30.263844580302678,-97.76333212742121,ZILKER,Mexican Restaurant
190,Picnic Food Trailer Park,,30.263441625753448,-97.7628738717926,ZILKER,Food Truck
191,Austin Eastciders,1530 Barton Springs Rd,30.262135,-97.76137,ZILKER,New American Restaurant
192,Uchi,801 S Lamar Blvd,30.25759427998056,-97.75989112033848,ZILKER,Japanese Restaurant
193,Carpenters Hall,400 Josephine St,30.262191856255196,-97.7587578320245,ZILKER,Restaurant
194,Perla's Seafood and Oyster Bar,1400 S Congress Ave Ste B100,30.249911092409054,-97.74979543938919,BOULDIN CREEK,Seafood Restaurant
195,Sandy's Hamburgers,603 Barton Springs Rd,30.25839,-97.751007,BOULDIN CREEK,Burger Joint
196,El Alma Cafe y Cantina,1025 Barton Springs Rd,30.260118822109327,-97.75557735544075,BOULDIN CREEK,Mexican Restaurant
197,McDonald's,4501 E Ben White Blvd,30.214463825651073,-97.73431599140167,MCKINNEY,Fast Food Restaurant
198,Wendy’s,6210 East Ben White,30.2131201,-97.7124344,PARKER LANE,Fast Food Restaurant
199,Mi Bambuco Columbian Restaurant,5808 Burleson Rd,30.207962,-97.72094,MCKINNEY,Latin American Restaurant
200,Jack in the Box,6133 E Ben White Blvd,30.211580409105782,-97.71331161260605,MCKINNEY,Fast Food Restaurant
201,Burger King,3001 Montopolis Dr,30.21345535893649,-97.71089042906472,MONTOPOLIS,Fast Food Restaurant
202,Pueblo Viejo,3901 Promontory Point Dr.,30.208968587999546,-97.72964277076065,MCKINNEY,Food Truck
203,Popeyes Louisiana Kitchen,2919 Montopolis Dr,30.213896658900644,-97.71068351095134,MONTOPOLIS,Fried Chicken Joint
204,Catfish Parlor,4705 E Ben White Blvd,30.213945963464713,-97.73128050829312,MCKINNEY,Seafood Restaurant
205,Patsy's Cowgirl Cafe,5001 E Ben White Blvd,30.21343413771936,-97.72816002899684,MCKINNEY,American Restaurant
206,Garbo’s,3901 Promontory Point Dr,30.209470073934572,-97.72997160971306,MCKINNEY,Food Truck
207,Belladonna Italian Subs,4612 Burleson Rd,30.212971989277534,-97.73130661723138,MCKINNEY,Sandwich Place
208,Casa Vallarta,,30.206646999999997,-97.718211,MCKINNEY,Mexican Restaurant
209,Subway,6311 Burleson,30.204845821274077,-97.71648438023425,MCKINNEY,Sandwich Place
210,Craft Woodfire Pizza,,30.208739,-97.729353,MCKINNEY,Pizza Place
211,Mariana's Kitchen,6002 Burleson Rd,30.206645459133984,-97.71818381814053,MCKINNEY,Mexican Restaurant
212,El Meson,5808 Burleson Rd,30.207964538783408,-97.72097133084137,MCKINNEY,Mexican Restaurant
213,Casa Morena,4606 Burleson Rd,30.21301940415244,-97.73163367592775,MCKINNEY,Mexican Restaurant
214,Crossroads: Farm To Truck,1210 Barton Springs Rd,30.211378593366554,-97.736066016092,MCKINNEY,Food Truck
215,Grand Slam Cafe,6101 E Oltorf St,30.216784436227734,-97.71360981806266,PLEASANT VALLEY,Food Court
216,Austin Sonics,4513 Burleson Rd,30.213113149170464,-97.7335508961572,MCKINNEY,Fast Food Restaurant
217,Jalapeno's 2,6002 Burleson Rd,30.206680297851562,-97.71829223632812,MCKINNEY,Mexican Restaurant
218,Melissa's Kitchen,,30.208577948232172,-97.72221248090324,MCKINNEY,Food Truck
219,Word of Mouth Catering,5002 Burleson Rd,30.21178,-97.72867,MCKINNEY,Sandwich Place
220,Metcenter Food Truck Court,,30.206324,-97.696447,SOUTHEAST,Food Court
221,McDonald's,8500 E Highway 290,30.329098047093296,-97.66063528684072,WALNUT CREEK--PIONEER HILL,Fast Food Restaurant
222,Bill Miller Bar-B-Q,8700 US Hwy 290East,30.329293078450267,-97.6589821181109,WALNUT CREEK--PIONEER HILL,Cuban Restaurant
223,Jack in the Box,6540 Ed Bluestein Blvd,30.303796223277633,-97.66176223754883,UNIVERSITY HILLS,Fast Food Restaurant
224,Wingstop,7112 Ed Bluestein Blvd,30.314016196618923,-97.6640266587015,UNIVERSITY HILLS,Wings Joint
225,Tres Amigos,7535 E Highway 290,30.324066974879248,-97.67460776541314,UNIVERSITY HILLS,Mexican Restaurant
226,Short Shop,6600-6778 Berkman Dr,30.319146828597567,-97.68903088023971,WINDSOR PARK,Fast Food Restaurant
227,La Palapa,6640 E Highway 290,30.322210738045726,-97.69327315577853,CORONADO HILLS,Mexican Restaurant
228,Little Deli & Pizzeria,1804 Briarcliff Blvd,30.3142578,-97.6900634,WINDSOR PARK,Pizza Place
229,Pizza Patron,"7112 Ed Bluestein Blvd,",30.312051,-97.66476999999999,UNIVERSITY HILLS,Pizza Place
230,Mr. Gatti's Pizza,7525 E Highway 290,30.3239161085584,-97.67523943889125,UNIVERSITY HILLS,Pizza Place
231,KFC,7206 Ed Bluestein Blvd,30.314349275484016,-97.66358026198861,UNIVERSITY HILLS,Fried Chicken Joint
232,El Charrito,7100 E Highway 290,30.323219,-97.682774,CORONADO HILLS,Mexican Restaurant
233,Oriental Express,7517 Cameron Rd,30.329851205729135,-97.68847778267299,CORONADO HILLS,Asian Restaurant
234,China Kitchen,7001-7107 Manor Rd,30.313661916408105,-97.66428601098758,UNIVERSITY HILLS,Chinese Restaurant
235,El Riconcito Del Sabor (Formally Luviano's Mexican Restaurant),7213 Cameron Rd,30.326630551941438,-97.69154337800872,CORONADO HILLS,Mexican Restaurant
236,El Pollo Regio #8,6615 Berkman Dr,30.319626356532904,-97.68886523699733,WINDSOR PARK,Mexican Restaurant
237,Jack in the Box,6800 Berkman Dr Bldg 1,30.32050038698818,-97.689528465271,WINDSOR PARK,Fast Food Restaurant
238,Jack in the Box,8706 E Highway 290,30.3291947,-97.6583485,WALNUT CREEK--PIONEER HILL,Fast Food Restaurant
239,Local Slice,8201 Cross Park Dr,30.330634000000003,-97.667215,WALNUT CREEK--PIONEER HILL,Pizza Place
240,Dragonbeard Kitchen,8201 Cross Park Dr Ste B1,30.330954476219343,-97.66698737997612,WALNUT CREEK--PIONEER HILL,Asian Restaurant
241,SONIC Drive In,7112 Ed Bluestein Blvd Ste 160,30.313896863294556,-97.66347751021385,UNIVERSITY HILLS,Fast Food Restaurant
242,Domino's Pizza,5811 Berkman Dr Ste 134,30.311797473153874,-97.69129832090584,WINDSOR PARK,Pizza Place
243,Emojis,,30.3324590611827,-97.66771059997252,WALNUT CREEK--PIONEER HILL,Food Truck
244,Subs n More,1900 E Anderson Ln,30.33060406409688,-97.67994875393138,WALNUT CREEK--PIONEER HILL,Sandwich Place
245,Gourdough's @ University Co-op Food Court,,30.314452762890134,-97.68698631050111,WINDSOR PARK,Food Truck
246,El Tacorrido,5811 Berkman Dr,30.312106,-97.692123,WINDSOR PARK,Taco Place
247,Hula Hut,3825 Lake Austin Blvd,30.29488593980785,-97.78429172460577,WEST AUSTIN NG,Mexican Restaurant
248,Tumble22,2304 Lake Austin Blvd,30.277636,-97.77168,WEST AUSTIN NG,Fried Chicken Joint
249,Maudie's Cafe,2608 W 7th St,30.2828471,-97.77562730000001,WEST AUSTIN NG,Mexican Restaurant
250,Tarry House,3006 Bowman Ave,30.300240613793314,-97.77056088994145,WEST AUSTIN NG,American Restaurant
251,The Beer Plant,3110 Windsor Rd,30.29673644528341,-97.7677198762694,WEST AUSTIN NG,Vegetarian / Vegan Restaurant
252,Josephine House,1601 Waterston Ave,30.28064795890381,-97.75901664636474,OLD WEST AUSTIN,Café
253,Abel's on the Lake,3825 Lake Austin Blvd,30.295268156965612,-97.78438940930324,WEST AUSTIN NG,American Restaurant
254,Thundercloud Subs,2308 Lake Austin Boulevard,30.2781195,-97.77203979,WEST AUSTIN NG,Sandwich Place
255,Musashino Sushi Dokoro,2905 San Gabriel St #200,30.2979174020733,-97.74739048623567,WEST UNIVERSITY,Sushi Restaurant
256,Pool Burger,2315 Lake Austin Blvd,30.2778,-97.77259,WEST AUSTIN NG,Burger Joint
257,Food! Food!,2727 Exposition Blvd,30.30419,-97.764603,WEST AUSTIN NG,Sandwich Place
258,Jeffrey's,1204 W Lynn St,30.28044730526603,-97.75911158895477,OLD WEST AUSTIN,American Restaurant
259,68 Degree Kitchen,2401 Lake Austin Blvd,30.277838448927845,-97.77272347244092,WEST AUSTIN NG,Italian Restaurant
260,Bert's BBQ,907 W 24th St,30.28800299328462,-97.74729448407766,WEST UNIVERSITY,BBQ Joint
261,Cipollina West Austin Bistro,1213 W Lynn St,30.28056058297976,-97.75851238701486,OLD WEST AUSTIN,Italian Restaurant
262,West Campus Food Trucks,2512 Rio Grande St,30.28718382494919,-97.74992227730019,WEST UNIVERSITY,Food Truck
263,Fabi + Rosi,509 Hearn St,30.278818,-97.772776,WEST AUSTIN NG,French Restaurant
264,Rancho Rio Eatery,26th Street,30.290537,-97.744741,WEST UNIVERSITY,Food Truck
265,Stinson's Bistro,2401 Lake Austin Blvd,30.277943605344486,-97.7727098637053,WEST AUSTIN NG,Bistro
266,Quincy Erickson,2703 Maria Anna Rd,30.305413,-97.768496,WEST AUSTIN NG,Food
267,Food Trucktopia,,30.299231544621268,-97.75799751104077,WINDSOR ROAD,Food Truck
268,Zocalo Cafe,1110 W Lynn St,30.279991363648296,-97.75941368860848,OLD WEST AUSTIN,Mexican Restaurant
269,Red Lotus Asian Grille,"6507 Jester Blvd, Suit 501",30.369555271406078,-97.80075346525119,JESTER,Asian Restaurant
270,SUBWAY,6507 Jester Blvd Ste 101,30.370263828835746,-97.8000683989149,JESTER,Sandwich Place
271,Papa John's Pizza,6507 Jester Blvd Ste 109,30.3700190805654,-97.79958996277986,JESTER,Pizza Place
272,Austin's Pizza,7301 N FM 620 Rd,30.37241672889548,-97.80224258451187,JESTER,Pizza Place
273,Indeed Cafe,,30.373658049480937,-97.78211151350767,BULL CREEK,Café
274,Torchy's Tacos,5900 W Slaughter Ln Ste 550,30.2015232,-97.8800798,VILLAGE AT WESTERN OAKS,Taco Place
275,Waterloo Ice House,9600 Escarpment Blvd,30.2034836,-97.8789082,VILLAGE AT WESTERN OAKS,American Restaurant
276,District Kitchen + Cocktails,5900 W Slaughter Ln Ste D500,30.20148697416154,-97.87973231219046,VILLAGE AT WESTERN OAKS,American Restaurant
277,SUBWAY,5800 W Slaughter Ln #380,30.20088300628962,-97.87581867676022,VILLAGE AT WESTERN OAKS,Sandwich Place
278,Mangieri's Pizza Café,5900 W Slaughter Ln,30.201305112780656,-97.87901335784284,VILLAGE AT WESTERN OAKS,Pizza Place
279,Food Trailer Night,,30.192297509755942,-97.9086934800941,CIRCLE C SOUTH,Food Truck
280,Satellite...Eat. Drink. Orbit.,5900 W Slaughter Ln #400,30.201790496376493,-97.87881837499513,VILLAGE AT WESTERN OAKS,New American Restaurant
281,Korean Komfort,2512 Rio Grande St,30.202482066634175,-97.87424603091426,VILLAGE AT WESTERN OAKS,Food Truck
282,Circle C Grill & Catering,5919 La Crosse Ave,30.193092346191406,-97.88541412353516,CIRCLE C SOUTH,Snack Place
283,Wildflower Cafe,4801 La Crosse Ave,30.18583106994629,-97.87315368652344,SOUTH BRODIE,Café
284,Mmmpanadas,,30.187348347856283,-97.87474029799567,CIRCLE C SOUTH,Food Truck
285,Sweet Caroline's Snow Shack,5700 W Slaughter Ln,30.194215466278838,-97.88505691235407,CIRCLE C SOUTH,Food Truck
286,Dan's Hamburgers,4308 Manchaca Rd,30.230776050554066,-97.78821103195052,SOUTH LAMAR,Burger Joint
287,In-N-Out Burger,3701 S. Lamar Blvd.,30.238659,-97.788602,SOUTH LAMAR,Fast Food Restaurant
288,Veracruz All Natural,4204 Manchaca Rd,30.23148062389229,-97.78784368205956,SOUTH LAMAR,Taco Place
289,Whataburger,1908 W Ben White Blvd,30.230343207423573,-97.78715752445805,SOUTH LAMAR,Burger Joint
290,Pinthouse Pizza,4236 S Lamar Blvd,30.23597576734187,-97.79584124901226,BARTON HILLS,Pizza Place
291,Pluckers Wing Bar,3909B S Lamar Blvd,30.2366898,-97.7908154,SOUTH LAMAR,Wings Joint
292,The Park on South Lamar,4024 S Lamar Blvd,30.236258441285806,-97.79333122017404,BARTON HILLS,American Restaurant
293,Taco Bell,1701 W Ben White Blvd,30.227696799087237,-97.78523727462843,SOUTH MANCHACA,Fast Food Restaurant
294,Olive Garden,3940 S Lamar Blvd,30.23697676190755,-97.79240476983283,BARTON HILLS,Italian Restaurant
295,Taco Cabana,2117 W Ben White Blvd,30.23059360675037,-97.79145564537586,WESTGATE,Taco Place
296,Freebirds World Burrito,"4032 South Lamar Blvd, Ste. 100",30.23666608307003,-97.79389187693596,BARTON HILLS,Mexican Restaurant
297,Popeyes Louisiana Kitchen,2101 W Ben White Blvd,30.230146234362067,-97.7905210801207,WESTGATE,Fried Chicken Joint
298,The Vegan Yacht,,30.21809504749467,-97.79600383126119,WESTGATE,Food Truck
299,BJ's Restaurant & Brewhouse,5207 Brodie Lane,30.2306535,-97.8149562,WESTGATE,American Restaurant
300,Azul Tequila,4211 S Lamar Blvd,30.233623023873417,-97.79229643412702,SOUTH LAMAR,Mexican Restaurant
301,Jack in the Box,1801 W Ben White Blvd,30.2283943,-97.7864675,SOUTH MANCHACA,Fast Food Restaurant
302,Cherry Creek Catfish Co.,5712 Manchaca Road,30.214751454117348,-97.79935300573591,GARRISON PARK,Seafood Restaurant
303,Red Lobster,"3815 S. Lamar Blvd., SOUTH AUSTIN",30.237734,-97.789567,SOUTH LAMAR,Seafood Restaurant
304,Pei Wei,4200 S Lamar Blvd.,30.235924,-97.795227,BARTON HILLS,Asian Restaurant
305,Moreno Barbecue,5700 Menchaca Rd,30.21479606628418,-97.79969787597656,GARRISON PARK,BBQ Joint
306,Buffet Palace,4608 West Gate Blvd,30.23037484331009,-97.80114129443821,WESTGATE,Asian Restaurant
307,Milano Pizza,1025 W Stassney Ln,30.210116999999997,-97.786979,GARRISON PARK,Pizza Place
308,Pok-E-Jo's,4109 S Capital of Texas Hwy,30.237013628457092,-97.79730356091683,BARTON HILLS,BBQ Joint
309,Captain Quackenbush's Coffeehouse,,30.217776,-97.795969,SOUTH MANCHACA,Bakery
310,Austin Java,5404 Menchaca Rd,30.217557,-97.796687,WESTGATE,Café
311,Gatti's Pizza,6800 West Gate Blvd,30.21352712351716,-97.80532623687681,GARRISON PARK,Pizza Place
312,Hunan Lion Restaurant,4006 S Lamar Blvd Ste 1000,30.23724124219567,-97.79369861301639,BARTON HILLS,Chinese Restaurant
313,Sap's Fine Thai Cuisine,4514 West Gate Blvd,30.231373533415862,-97.80085508896673,WESTGATE,Thai Restaurant
314,Tuktuk,,30.215997,-97.796643,SOUTH MANCHACA,Thai Restaurant
315,Conans Pizza South,2018 W Stassney Ln,30.21624479871301,-97.79830327932504,WESTGATE,Pizza Place
316,Matt's El Rancho,2613 S Lamar Blvd,30.245307338988525,-97.7793942016119,SOUTH LAMAR,Tex-Mex Restaurant
317,Sonic Drive-In,2632 S Lamar Blvd,30.245756324905,-97.780058225635,ZILKER,Fast Food Restaurant
318,Torchy's Tacos,3005 S Lamar Blvd,30.2416876,-97.7842784,SOUTH LAMAR,Taco Place
319,Kerbey Lane Cafe,3003 S Lamar Blvd,30.241803,-97.783816,SOUTH LAMAR,Café
320,Phantasma Kitchen,3403,30.240846,-97.785728,SOUTH LAMAR,Pizza Place
321,Lechuza Birria Tacos,3403 S Lamar Blvd,30.240743,-97.785905,SOUTH LAMAR,Taco Place
322,Barley Bean,,30.239112825876116,-97.78878035735751,BARTON HILLS,Deli / Bodega
323,Chi'lantro,1509 S Lamar Blvd,30.25218261457109,-97.76405162204173,ZILKER,Korean Restaurant
324,Sonic Drive-In,9916 Brodie Ln,30.18476577527,-97.8497535773431,BRODIE LANE,Fast Food Restaurant
325,Whataburger,3400 W Slaughter Ln,30.182968816917846,-97.84744352102274,CHERRY CREEK,Burger Joint
326,Taco Bell,3324 W Slaughter Ln,30.182484419252205,-97.84671558967595,CHERRY CREEK,Fast Food Restaurant
327,Bush's Chicken,9815 Brodie Lane,30.185858917770116,-97.84766829208462,CHERRY CREEK,Fried Chicken Joint
328,Broadie Area,,30.199753059221457,-97.83515665247532,CHERRY CREEK,Bakery
329,Maudie's Hacienda,9911 Brodie Ln #900,30.1847199,-97.8489851,CHERRY CREEK,Mexican Restaurant
330,Evangeline Café,8106 Brodie Ln,30.20212665004666,-97.83864960860278,BRODIE LANE,Cajun / Creole Restaurant
331,Tino's Greek Cafe,9901 Brodie Ln,30.1848712301815,-97.84783641630146,CHERRY CREEK,Greek Restaurant
332,Madam Mam's,,30.18344372666556,-97.84822687989353,CHERRY CREEK,Thai Restaurant
333,Shipley Donuts,8213 Brodie Ln,30.200867,-97.838402,CHERRY CREEK,Donut Shop
334,Galaxy Cafe,9911 Brodie Ln Ste 750,30.183369298422065,-97.84804932234124,CHERRY CREEK,American Restaurant
335,Casa Arandinas,,30.19381147570534,-97.84276477412746,CHERRY CREEK,Mexican Restaurant
336,Almas Tacos,8213 Brodie Ln,30.20082589276975,-97.8380721612786,CHERRY CREEK,Taco Place
337,Nanami Sushi Bar & Grill,9001 Brodie Ln #B1,30.193525178775076,-97.84307297807018,CHERRY CREEK,Sushi Restaurant
338,KC Donuts,8106 Brodie Ln,30.202356935814088,-97.83834898055702,BRODIE LANE,Donut Shop
339,Crema Bakery,9001 Brodie Ln Ste B3,30.193446722788895,-97.84309883276863,CHERRY CREEK,Bakery
340,Taqueria Mina,,30.178747,-97.838875,CHERRY CREEK,Taco Place
341,Subway,8906 Brodie Ln,30.195274558501506,-97.84313588138735,BRODIE LANE,Sandwich Place
342,Jet's Pizza,9001 Brodie Ln,30.19392957240461,-97.84275603162739,CHERRY CREEK,Pizza Place
343,Brodie Park Market,9001 Brodie Ln,30.194049021128876,-97.842747423222,CHERRY CREEK,Deli / Bodega
344,Sonic Drive-In,7711 Brodie Ln,30.205052000000002,-97.835827,CHERRY CREEK,Fast Food Restaurant
345,Poke Poke,,30.183223,-97.848083,CHERRY CREEK,Hawaiian Restaurant
346,Papa John's Pizza,"8106 Brodie Ln, Ste 101",30.202632089665897,-97.83822982209017,BRODIE LANE,Pizza Place
347,Beijing Wok Chinese Restaurant,8106 Brodie Ln Ste 109,30.202053586577005,-97.8383767803882,BRODIE LANE,Chinese Restaurant
348,SUBWAY,9911 Brodie Ln,30.18314404348701,-97.84797816136448,CHERRY CREEK,Sandwich Place
349,Livefeast com,3920 Idalia Dr,30.181373999999998,-97.860405,SOUTH BRODIE,Food
350,Pizza Hut,8400 Brodie Ln Ste 105,30.200537347670465,-97.83958464860922,BRODIE LANE,Pizza Place
351,Wok On Fire,9901 Brodie Ln,30.18514128101419,-97.84750717828035,CHERRY CREEK,Chinese Restaurant
352,Soul Of A Hick,6218 Brodie Ln,30.20227916599611,-97.84637066818532,BRODIE LANE,Food Truck
353,Whitfield's,,30.194405,-97.8426,CHERRY CREEK,BBQ Joint
354,In-N-Out Burger,4515 Airport Blvd,30.304358,-97.715678,NORTH LOOP,Fast Food Restaurant
355,Tyson's Tacos,4905 Airport Blvd,30.309663588079886,-97.7152521078881,NORTH LOOP,Taco Place
356,Home Slice Pizza,501 E 53rd St,30.316135644606348,-97.71846753018822,NORTH LOOP,Pizza Place
357,McDonald's,5516 N Lamar Blvd,30.323702370089755,-97.72833697032183,BRENTWOOD,Fast Food Restaurant
358,Panda Express,5764 Airport Blvd,30.3215040156829,-97.71434657268271,HIGHLAND,Chinese Restaurant
359,Freebirds World Burrito,"1000 E 41st St, Ste. 260",30.2995852,-97.7213444,HANCOCK,Mexican Restaurant
360,Taco Cabana,5242 N Lamar Blvd,30.321009886089044,-97.72969193887506,BRENTWOOD,Taco Place
361,Pinthouse Pizza,4729 Burnet Rd,30.318748475071835,-97.7390860867844,BRENTWOOD,Pizza Place
362,Dan's Hamburgers,5602 N Lamar Blvd,30.32479608002406,-97.72738144948038,BRENTWOOD,Burger Joint
363,Jason's Deli,1000 E 41st St,30.30090747096066,-97.72121922448105,HANCOCK,Deli / Bodega
364,JewBoy Burgers (Jewboy Burgers),5111 Airport Blvd,30.312608369979447,-97.71524961696363,NORTH LOOP,Burger Joint
365,Wendy’s,1000 E 41st St,30.2985375,-97.7181315,HANCOCK,Fast Food Restaurant
366,Tso Chinese Delivery,"3909 N INTERSTATE 35, Ste E-5",30.295672663908075,-97.7172636888855,UPPER BOGGY CREEK,Chinese Restaurant
367,Mandola's Italian Market,4700 W Guadalupe St #12,30.3155528,-97.7332374,TRIANGLE STATE,Italian Restaurant
368,Quack's 43rd St Bakery,411 E 43rd St,30.3047312713377,-97.72651108375807,HYDE PARK,Bakery
369,Wingzup,1000 E 41st St Ste 210,30.30003537454869,-97.72156807935443,HANCOCK,Wings Joint
370,Tacodeli,4200 N Lamar Blvd,30.31043169411083,-97.74001697215408,ROSEDALE,Taco Place
371,Uchiko,4200 N Lamar Blvd,30.310836283619356,-97.73977168810309,ROSEDALE,Japanese Restaurant
372,Citizen Eatery,5011 Burnet Rd,30.32145842447524,-97.73904880767277,BRENTWOOD,Vegetarian / Vegan Restaurant
373,SUBWAY,1901 E Ben White Blvd,30.215383529663086,-97.7471694946289,MCKINNEY,Sandwich Place
374,The Hideaway Kitchen & Bar,4323 S Interstate 35,30.211586999999998,-97.75272700000001,FRANKLIN PARK,Restaurant
375,Vic's BBQ,3502 Burleson Rd,30.216532899026973,-97.73475889086622,PARKER LANE,BBQ Joint
376,La Tunita 512,2400 Burleson Rd,30.229411,-97.735831,PARKER LANE,Taco Place
377,Het Say,2121 E Oltorf St,30.229782347098844,-97.73223005177726,PARKER LANE,Vietnamese Restaurant
378,Taqueria Peloncitos,,30.214338784014522,-97.7446383279558,MCKINNEY,Food Truck
379,Don Juan,2506 E Ben White Blvd,30.21594770674711,-97.73576845155218,PARKER LANE,Mexican Restaurant
380,The Limestone Kitchen,4415 S I-35,30.210915171588617,-97.75329798460012,FRANKLIN PARK,Restaurant
381,Lopez Taco Shop,,30.206040653650785,-97.75056422985507,FRANKLIN PARK,Food Truck
382,IHOP,4118 S Interstate 35,30.215020102077567,-97.75351524353027,EAST CONGRESS,Breakfast Spot
383,Walmart Bakery,710 E Ben White Blvd,30.21894243,-97.75539607,ST. EDWARDS,Bakery
384,ReVive!,3401 S Interstate 35,30.222902204364125,-97.74599447164813,PARKER LANE,American Restaurant
385,Thai Curry,,30.211656732331882,-97.75298884718696,FRANKLIN PARK,Thai Restaurant
386,Taqueria Chapala #5,2121 E Oltorf St,30.230070874630577,-97.73297366215087,PARKER LANE,Mexican Restaurant
387,Costco Food Court,,30.396529961966486,-97.74399982456914,GATEWAY,Food Court
388,Lupe Tortilla - Austin - Arbor Walk,10515 N Mopac Expy Bldg R,30.387016780364505,-97.73397012188329,NORTH BURNET,Mexican Restaurant
389,la Madeleine French Bakery & Café Arboretum,9828 Great Hills Trl Ste 650,30.395668,-97.747169,JOLLYVILLE,French Restaurant
390,P.F. Chang's,10114 Jollyville Rd,30.3955107,-97.7503492,JOLLYVILLE,Chinese Restaurant
391,Panera Bread,9901 N Capital of Texas Hwy Ste 100,30.390232,-97.74,GATEWAY,Bakery
392,Luby's,8176 N. Mo-Pac Expressway,30.368387,-97.743993,WESTOVER HILLS,Comfort Food Restaurant
393,Mighty Fine Burgers,10515 N Mopac Expy Unit 205,30.38978577698519,-97.73324197611947,NORTH BURNET,Burger Joint
394,Five Guys,"10000 Research Blvd., #142",30.39092,-97.748337,JOLLYVILLE,Burger Joint
395,Torchy's Tacos,4211 Spicewood Springs Rd,30.37068716082443,-97.75627740542404,NORTHWEST HILLS,Taco Place
396,Haru,9503 Research Blvd,30.386704977485962,-97.74187186437221,GATEWAY,Asian Restaurant
397,Chipotle Mexican Grill,10515 N Mopac Expy Ste B200,30.389870212109194,-97.73331838615559,NORTH BURNET,Mexican Restaurant
398,Taco Cabana,9605 Research Blvd,30.388315887559,-97.74309127680898,GATEWAY,Taco Place
399,Corner Bakery Cafe,9761 Great Hills Trail,30.393852,-97.750859,JOLLYVILLE,Bakery
400,Southside Market & Bbq,10515 N Mopac Expy,30.38954,-97.73318,NORTH BURNET,Restaurant
401,Masala Wok,10515 N Mopac Expy Ste A155,30.389048454684914,-97.73314019847437,NORTH BURNET,Asian Restaurant
402,Another Broken Egg Cafe,8012 Mesa Dr,30.370731,-97.75855,BULL CREEK,Café
403,Jason's Deli,10225 Research Blvd Ste 1010,30.394691923969617,-97.74465037604006,GATEWAY,Deli / Bodega
404,Modern Market,9828 Great Hills Trl Ste 110,30.3955094,-97.7487781,JOLLYVILLE,American Restaurant
405,Honest Mary’s,9828 Great Hills Trl Ste 300,30.394943144696835,-97.74844293126253,JOLLYVILLE,New American Restaurant
406,Baby Acapulco,9505 Stonelake Blvd,30.386752006930234,-97.73771149648385,GATEWAY,Mexican Restaurant
407,Estancia Churrascaria Brazilian Steakhouse,10000 Research Blvd Ste B,30.39311534621932,-97.7474912063269,JOLLYVILLE,Churrascaria
408,Fire Bowl Cafe,9828 Great Hills Trl,30.39502161596378,-97.74951331930731,JOLLYVILLE,Asian Restaurant
409,Manuel's,10201 Jollyville Rd,30.396830573807367,-97.74939269740125,JOLLYVILLE,Mexican Restaurant
410,Troy,8105 Mesa Dr,30.371653112401052,-97.75690392992169,NORTHWEST HILLS,Turkish Restaurant
411,Wally's Burger Express,8107 Mesa Dr,30.37213112087914,-97.7566262913011,WESTOVER HILLS,Burger Joint
412,Newk's Express Cafe,9722 Great Hills Trl #130,30.39508886628646,-97.75089056838658,JOLLYVILLE,Café
413,Truluck's Seafood Steak & Crab,10225 Research Blvd,30.395394997220247,-97.74544678036266,GATEWAY,Seafood Restaurant
414,Galaxy Cafe,8127 Mesa Dr Ste A100,30.37315608299405,-97.75582331898426,WESTOVER HILLS,American Restaurant
415,Jersey Mike's Subs,"10001 Research Blvd., Suite 170",30.392389,-97.745157,GATEWAY,Sandwich Place
416,Eddie V's Prime Seafood,9400B Arboretum Blvd,30.389620165313094,-97.75295057464756,JOLLYVILLE,Seafood Restaurant
417,Maudie's North Lamar,10205 N Lamar Blvd,30.372,-97.69138,NORTH LAMAR,Mexican Restaurant
418,The Halal Bros,1910 W Braker Lane,30.392817637161574,-97.70681101111663,GRACY WOODS,Middle Eastern Restaurant
419,Chuy's Tex-Mex,10520 N Lamar Blvd,30.37508014595138,-97.6905871670896,NORTH LAMAR RUNDBERG,Mexican Restaurant
420,Wendy’s,1910 W Braker Ln,30.392229,-97.7068047,GRACY WOODS,Fast Food Restaurant
421,International Food,11331 N Lamar Blvd,30.382330141139505,-97.68517602429225,GRACY WOODS,Mediterranean Restaurant
422,Santorini Cafe,11800 N Lamar Blvd Bldg 1,30.387787558093724,-97.68398349224131,GRACY WOODS,Greek Restaurant
423,Balkan Cafe & Grill,11800 N Lamar Blvd,30.388050520043432,-97.68415506614681,GRACY WOODS,Eastern European Restaurant
424,Mariscos Tampico Bar & Grill,10601 N Lamar Blvd,30.373921972353035,-97.68864012404099,NORTH LAMAR,Mexican Restaurant
425,Pho Saigon,10901 N Lamar Blvd #108,30.378036303841842,-97.68720454742908,NORTH LAMAR,Vietnamese Restaurant
426,Smokin Beauty,11806 N Lamar Blvd,30.388632,-97.683565,GRACY WOODS,BBQ Joint
427,Korean Grill,10901 N Lamar Blvd #204,30.378983095137333,-97.68694230024873,NORTH LAMAR,Korean Restaurant
428,Maki Toki,1910 W Braker Ln,30.3925967,-97.7071181,GRACY WOODS,Sushi Restaurant
429,taquito aviles,Braker Ln,30.37703495610781,-97.69466203106712,NORTH LAMAR RUNDBERG,Food Truck
430,Baguette House & Cafe,10901 N Lamar Blvd,30.377137365679467,-97.68682001913672,NORTH LAMAR,Vietnamese Restaurant
431,Matamoros Tacos,10810 N Lamar Blvd,30.37730172315548,-97.68899527498473,NORTH LAMAR,Food Truck
432,New Fortune Chinese Seafood Restaurant,10901 N Lamar Blvd,30.37784779038532,-97.68809553907404,NORTH LAMAR,Cantonese Restaurant
433,Rice Bowl Cafe,11220 N Lamar Blvd,30.382539098822075,-97.68829824531223,GRACY WOODS,Chinese Restaurant
434,Zaytoyna Lounge,11800 N Lamar Blvd Bldg 5B,30.38845932191481,-97.68407526605655,GRACY WOODS,Café
435,Peace Bakery and Deli Halal Restaurant,11220 N. Lamar Blvd.,30.382109908266496,-97.68723255524152,GRACY WOODS,Halal Restaurant
436,Lily's Sandwich,10901 N Lamar Blvd #105,30.37834150428237,-97.68725872921915,NORTH LAMAR,Vietnamese Restaurant
437,Pho Danh House of Noodle,11220 N Lamar Blvd,30.38214948253014,-97.68761638838666,GRACY WOODS,Vietnamese Restaurant
438,First Chinese BBQ,10901 N Lamar Blvd,30.37844468752835,-97.68671173887614,NORTH LAMAR,Chinese Restaurant
439,River City Donuts 2,,30.40073327717207,-97.70379271358193,NORTH BURNET,Donut Shop
440,Oakwood BBQ,307 E Braker Ln,30.377958413425326,-97.67948641249825,NORTH LAMAR,Restaurant
441,Kiefer's Cafe & Catering,2007 Kramer Ln Ste 105,30.38840667482074,-97.70990442220267,NORTH LAMAR RUNDBERG,Deli / Bodega
442,DoubleDave's Pizzaworks,11900 Metric Blvd Ste F,30.400424810527785,-97.70409113674012,NORTH BURNET,Pizza Place
443,El Trampo Tacos,11331A N. LAMAR BLVD,30.381975193208014,-97.6859155930508,GRACY WOODS,Taco Place
444,Pho Ha Noi Cuisine,11331 N Lamar Blvd # F,30.38218789594194,-97.68506172983098,GRACY WOODS,Vietnamese Restaurant
445,Ross' Cafe,11800 N Lamar Blvd,30.38843971816269,-97.68382902435293,GRACY WOODS,Café
446,Central Donut,1910 W Braker Ln #700,30.392869579332377,-97.70685848748998,GRACY WOODS,Donut Shop
447,Raising Cane's Chicken Fingers,2109 E Riverside Dr,30.2395677793556,-97.72696718217605,RIVERSIDE,Fried Chicken Joint
448,Taco Bell,2308 E Riverside Dr,30.238159572201283,-97.72532561538756,RIVERSIDE,Fast Food Restaurant
449,Wingstop,2410 E Riverside Dr,30.23591664955052,-97.72371276270563,RIVERSIDE,Wings Joint
450,SONIC Drive In,1901 Montopolis Dr,30.2256236055648,-97.7025391944562,MONTOPOLIS,Fast Food Restaurant
451,Pho Please,1920 E Riverside Dr,30.24306234040976,-97.72808197047426,RIVERSIDE,Vietnamese Restaurant
452,Hecho En Mexico,,30.224027,-97.703895,MONTOPOLIS,Mexican Restaurant
453,Mr. Gatti's Pizza,2410 E Riverside Dr,30.236959524193644,-97.72475829639849,RIVERSIDE,Pizza Place
454,Thundercloud Subs,2021 E Riverside Dr,30.24008209501906,-97.72749347944746,RIVERSIDE,Sandwich Place
455,888 Vietnamese Restaurant,2400 E Oltorf St,30.22962680466954,-97.73011688665741,RIVERSIDE,Vietnamese Restaurant
456,Little Caesars Pizza,4410 E Riverside Dr Ste 170,30.233925104312032,-97.721188996186,PLEASANT VALLEY,Pizza Place
457,Chipotle Mexican Grill,1920 E Riverside Dr Ste E-150,30.242141089875346,-97.72727691938695,RIVERSIDE,Mexican Restaurant
458,Chi'lantro,,30.24377133263751,-97.72823931768949,RIVERSIDE,Korean Restaurant
459,Master Donuts,6100 E Riverside Dr #103,30.2265567779541,-97.70567321777344,MONTOPOLIS,Donut Shop
460,Grizzelda's,105 Tillery St,30.252003831329926,-97.70849184944346,GOVALLE,Mexican Restaurant
461,Taqueria Arandinas,2110 E Riverside Dr,30.24065539838396,-97.72663701384698,RIVERSIDE,Mexican Restaurant
462,Ray's Barbeque,,30.238801000000002,-97.69432900000001,MONTOPOLIS,BBQ Joint
463,Tillery Kitchen and Bar,3201 E Cesar Chavez St,30.25183291451951,-97.70865590667502,GOVALLE,Mediterranean Restaurant
464,TOMGRO Grocery,1313 Montopolis Dr,30.230272846599473,-97.69980299033936,MONTOPOLIS,American Restaurant
465,El Jacalito Restaurant,2030 E Oltorf St,30.230422292859828,-97.73200249262698,RIVERSIDE,Mexican Restaurant
466,Mour Cafe and Pantry,1414 Shore District Dr,30.24355521519553,-97.72837475738348,RIVERSIDE,New American Restaurant
467,Kim Phung Restaurant - Riverside,2237 E Riverside Dr Ste 101-A,30.238419556628845,-97.72705048956585,RIVERSIDE,Vietnamese Restaurant
468,Pokeworks,1920 E Riverside Dr,30.242345,-97.727485,RIVERSIDE,Sushi Restaurant
469,Jacoby's Restaurant & Mercantile,3235 E Cesar Chavez St,30.251634892689825,-97.70733591036253,GOVALLE,New American Restaurant
470,Cafe Nena'i,1700 Montopolis Dr Ste A,30.227208773251657,-97.70224285958413,MONTOPOLIS,Latin American Restaurant
471,Taco More,2015 E Riverside Dr,30.240399044711822,-97.7280855125157,RIVERSIDE,Taco Place
472,Papa John's Pizza,2030 E Oltorf St Ste 114,30.23054554418944,-97.73159906655481,RIVERSIDE,Pizza Place
473,Tin Cup Grill,1020 Grove Blvd,30.237229496105474,-97.70439409294808,PLEASANT VALLEY,American Restaurant
474,La Hacienda Meat Market,2410 E Riverside Dr,30.237029999999997,-97.723904,RIVERSIDE,Mexican Restaurant
475,Rosita's Al Pastor,1911 E Riverside Dr,30.242939,-97.729471,RIVERSIDE,Mexican Restaurant
476,Toss Pizzeria,2901 S 1st St,30.23637958115871,-97.76314031251063,DAWSON,Pizza Place
477,Chipotle Mexican Grill,2320 S Lamar Blvd,30.247625825192163,-97.77547723670978,ZILKER,Mexican Restaurant
478,Crepe Crazy,3103 S Lamar Blvd,30.241713894984468,-97.78462582649634,SOUTH LAMAR,Creperie
479,Jesse's Tacos,,30.301073749642473,-97.68510991545409,WINDSOR PARK,Food Truck
480,Ricas Pupusas,,30.295975840959617,-97.69012964974766,WINDSOR PARK,Food Truck
481,Taqueria Huentitan,4700 Loyola Ln,30.309776,-97.66613100000001,UNIVERSITY HILLS,Food
482,Chick-fil-A,"7710 N FM 620 Rd, Bldg 9, Bldg 9",30.4100464,-97.8507893,FOUR POINTS,Fast Food Restaurant
483,Rudy's Country Store & Bar-B-Q,7709 N FM 620 Rd,30.410550471923152,-97.84938544034952,FOUR POINTS,BBQ Joint
484,Thundercloud Subs,6920 Ranch Rd 620 N,30.4031262,-97.8549974,FOUR POINTS,Sandwich Place
485,Whataburger,8300 N FM 620 Rd,30.420521207929184,-97.84641583263976,FOUR POINTS,Burger Joint
486,Oz Tap House,10601 Ranch Road 2222 Ste H,30.393278,-97.8454,FOUR POINTS,Gastropub
487,McDonald's,7409 N FM 620 Rd,30.407309523758666,-97.85122289325045,FOUR POINTS,Fast Food Restaurant
488,Chipotle,,30.411253,-97.850896,FOUR POINTS,Mexican Restaurant
489,Taco Bell,7515 N FM 620,30.40777464043648,-97.85102057195651,FOUR POINTS,Fast Food Restaurant
490,Green Mango by Thai Spice,8300 N FM 620 Rd Bldg L Ste 800,30.41876827386031,-97.84729028854409,FOUR POINTS,Thai Restaurant
491,Flores Mexican Restaurant,8300 N FM 620 Rd,30.4206299,-97.8470813,FOUR POINTS,Mexican Restaurant
492,Nik's Italian Kitchen & Bar,7900 N FM 620 Rd,30.41407,-97.84932,FOUR POINTS,Italian Restaurant
493,Pizza Hut,10601 FM 2222 / Riverplace,30.392684055838018,-97.8445614874363,FOUR POINTS,Pizza Place
494,Chipotle Mexican Grill,7710 N FM 620 Rd,30.4113419,-97.8509364,FOUR POINTS,Mexican Restaurant
495,Mighty Fine Food Truck,,30.402703746926342,-97.85490937366653,FOUR POINTS,American Restaurant
496,Howdy Donuts,,30.394183,-97.844807,FOUR POINTS,Donut Shop
497,Hill Country Tacos,,30.4019995371832,-97.85260704601926,FOUR POINTS,Taco Place
498,Hunan Riverplace,10601 Ranch Road 2222,30.393048274986533,-97.84467409040971,FOUR POINTS,Asian Restaurant
499,Papa Murphy's,11404 Ranch Road 2222,30.402603,-97.852073,FOUR POINTS,Pizza Place
500,Domino's Pizza,7900 N FM 620 Rd Ste 140,30.414612,-97.850905,FOUR POINTS,Pizza Place
501,Smokey J's Bar-B-Q,7008 Ranch Road 620 N.,30.403875983359274,-97.85470897384151,FOUR POINTS,BBQ Joint
502,Napa Flats,8300 Fm 620 M100,30.418347280267884,-97.84753285393707,FOUR POINTS,Italian Restaurant
503,Subway,7301 N FM 620 Rd Ste 130,30.40519023316138,-97.85138453695197,FOUR POINTS,Sandwich Place
504,Rice Thai & Sushi Bar,10601 Ranch to Market Rd 2222,30.39340358752416,-97.84526824951172,FOUR POINTS,Asian Restaurant
505,Hey Cupcake! - Round Rock,Mays,30.409539070125934,-97.86325611735717,FOUR POINTS,Food Truck
506,Kolache Factory Trailer,,30.4016538460802,-97.85466611598002,FOUR POINTS,Breakfast Spot
507,com bun yeu,,30.404344260597156,-97.84850105302701,FOUR POINTS,Food Truck
508,Dock & Roll Diner,,30.40682400410015,-97.84966455698003,FOUR POINTS,Food Truck
509,Kabobeque,,30.40259,-97.854729,FOUR POINTS,Food Truck
510,Taco Cabana,13376 Research Blvd,30.443824796282886,-97.78731964481989,ANDERSON MILL,Taco Place
511,Jardin Carona,13301 N Highway 183 Ste E,30.44521,-97.786514,ANDERSON MILL,Mexican Restaurant
512,Dairy Queen,,30.444265,-97.785447,ANDERSON MILL,Fast Food Restaurant
513,Domino's Pizza,13201 Pond Springs Rd,30.445566085375233,-97.77793054634913,POND SPRINGS,Pizza Place
514,Ebisu Japanese Restaurant,13376 N Highway 183 Ste 400,30.444076742216733,-97.78860926628113,ANDERSON MILL,Japanese Restaurant
515,Phil's Icehouse,,30.443850447608167,-97.7843694752367,ANDERSON MILL,Burger Joint
516,Dr Wok,13201 Pond Springs Rd,30.445502400398254,-97.77820229530334,POND SPRINGS,Chinese Restaurant
517,Taco Bell,13770 N Highway 183,30.461566284595534,-97.79514723581718,ANDERSON MILL,Fast Food Restaurant
518,Midori Sushi,13435 N Highway 183 Ste 301,30.44872080593066,-97.78804427939228,ANDERSON MILL,Sushi Restaurant
519,Pita Fusion - Lake Creek,13776 US Hwy 183 Ste 130,30.46195185455526,-97.79510320341791,ANDERSON MILL,Souvlaki Shop
520,Shandeez Grill,8883 Anderson Mill Rd,30.45395940237342,-97.77293645566238,POND SPRINGS,Middle Eastern Restaurant
521,Shipley Do-Nuts,10401 Anderson Mill Rd,30.446856,-97.804394,ANDERSON MILL,Donut Shop
522,Pacific Star Restaurant & Oyster Bar - Austin,13507 N Highway 183,30.450618652102563,-97.7900974875356,ANDERSON MILL,Seafood Restaurant
523,KFC,13435 N Highway 183,30.44816524703377,-97.7892801328652,ANDERSON MILL,Fried Chicken Joint
524,Los Reyes Mexican Food,13774 N Hwy 183,30.461973455662587,-97.79573269301525,ANDERSON MILL,Mexican Restaurant
525,P. Terry's Burger Stand,1800 E Oltorf St,30.232295239436407,-97.73642476048006,RIVERSIDE,Burger Joint
526,The Salty Donut,2000 S Congress Ave,30.244157634201816,-97.75205343961716,BOULDIN CREEK,Donut Shop
527,McDonald's,303 E Oltorf St,30.237510679629093,-97.75198868949701,ST. EDWARDS,Fast Food Restaurant
528,Taco Bell,201 E Oltorf St,30.2377142789429,-97.75246190319965,ST. EDWARDS,Fast Food Restaurant
529,Denny's,2320 S Interregional,30.2332093,-97.7425088,ST. EDWARDS,Breakfast Spot
530,Pho MPH 2,3715 S 1st St Unit A,30.22939643862328,-97.76735678315163,DAWSON,Vietnamese Restaurant
531,"Jo's Coffeehouse, Meadows Cafe",St. Edward's University,30.229295498460015,-97.755900389107,ST. EDWARDS,Café
532,Taqueria Arandas,2448 S 1st St,30.240606972197938,-97.76086766775894,GALINDO,Mexican Restaurant
533,Perry's Steakhouse,114 W 7th St,30.269373758193904,-97.74367595773867,DOWNTOWN,Steakhouse
534,Denny's,1601 N Interstate 35,30.276693950613446,-97.7296033501625,CENTRAL EAST AUSTIN,Breakfast Spot
535,Franklin Barbecue,900 E 11th St,30.270066627793767,-97.73137629032135,CENTRAL EAST AUSTIN,BBQ Joint
536,Stubb's Bar-B-Q,801 Red River St,30.268516074327795,-97.73625580828983,DOWNTOWN,BBQ Joint
537,El Chile Cafe y Cantina,1809 Manor Rd,30.283653558962158,-97.72250322374629,UPPER BOGGY CREEK,Mexican Restaurant
538,Pelóns,802 Red River St,30.26873184913702,-97.73649112630125,DOWNTOWN,Mexican Restaurant
539,Haymaker,2310 Manor Rd,30.28472893469761,-97.71749014808258,UPPER BOGGY CREEK,Gastropub
540,Hoboken Pie,718 Red River St,30.268067,-97.736858,DOWNTOWN,Pizza Place
541,Sour Duck Market,1814 E Martin Luther King Jr Blvd,30.279895308778794,-97.72153128036237,UPPER BOGGY CREEK,Restaurant
542,Whataburger,6205 N Lamar Blvd,30.330416498929782,-97.72298701484038,HIGHLAND,Burger Joint
543,IHOP,901 E Koenig Lane,30.32066262721077,-97.70986200659466,NORTH LOOP,Breakfast Spot
544,Pappasito's Cantina,6513 I-35 N.,30.32694,-97.70489,ST. JOHNS,Mexican Restaurant
545,Plucker's Wing Bar,6406 N Interstate 35 Ste 2949,30.323919,-97.707765,ST. JOHNS,Wings Joint
546,Kura Revolving Sushi Bar,6929 Airport Blvd,30.337238948312642,-97.71723239428987,HIGHLAND,Sushi Restaurant
547,Ojos Locos,7522 N Interstate 35,30.33717856288386,-97.7022272997837,ST. JOHNS,Mexican Restaurant
548,P. Terry's Burger Stand,5900 N Lamar Blvd,30.328169804592022,-97.72541083815359,BRENTWOOD,Burger Joint
549,Pappadeaux Seafood Kitchen,6319 N Interstate 35,30.325366,-97.704845,ST. JOHNS,Seafood Restaurant
550,Stiles Switch BBQ & Brew,6610 N Lamar Blvd,30.334506543674767,-97.72132192583526,BRENTWOOD,BBQ Joint
551,Denny's,7100 North I-35,30.332499,-97.70524,ST. JOHNS,Breakfast Spot
552,Searefina's Mariscos Y Sushi,,30.327713,-97.704516,ST. JOHNS,Mexican Restaurant
553,Revelry On The Boulevard,6215 N Lamar Blvd,30.330527000000004,-97.722627,HIGHLAND,Restaurant
554,Red Lobster,"109 W. Anderson Lane, NORTH AUSTIN",30.343661,-97.70595,HIGHLAND,Seafood Restaurant
555,Buffalo Wild Wings,7604 I-35 North,30.33819528228752,-97.7019906827536,ST. JOHNS,Wings Joint
556,Arpeggio Grill,6619 Airport Blvd,30.331050976999858,-97.71531651765693,HIGHLAND,Middle Eastern Restaurant
557,China Family Restaurant,6801 Airport Boulevard,30.333904,-97.716744,HIGHLAND,Chinese Restaurant
558,Sazan Ramen,,30.336672,-97.716626,HIGHLAND,Ramen Restaurant
559,Chili's Grill & Bar,6619 North Interstate Highway 35,30.3278815,-97.7048525,ST. JOHNS,Tex-Mex Restaurant
560,Cheko's Mexican Restaurant and Bar,1304 W Koenig Ln,30.330723914920625,-97.73092946413497,BRENTWOOD,Mexican Restaurant
561,Little Deli & Pizzeria,7101-A Woodrow Ave,30.342695532659498,-97.72558468001958,CRESTVIEW,Pizza Place
562,Han Yang Market,6808 N Lamar Blvd,30.336275164592337,-97.72067798336103,BRENTWOOD,Korean Restaurant
563,Wendy’s,5752 Airport Blvd,30.32115330589557,-97.71412007512026,HIGHLAND,Fast Food Restaurant
564,101 by Tea Haus,"6929 Airport Boulevard, 132",30.337086164997892,-97.71711702099554,HIGHLAND,Taiwanese Restaurant
565,Kim Phung Restaurant - North Lamar,7601 N Lamar Blvd,30.343916151081025,-97.71441392230382,HIGHLAND,Vietnamese Restaurant
566,Gabrielas Downtown,900 E 7th St,30.266652360031863,-97.73303732558458,CENTRAL EAST AUSTIN,Mexican Restaurant
567,Whole Foods Lamar Bistro,,30.270947067595255,-97.75355882944697,DOWNTOWN,American Restaurant
568,Eureka!,200 E 6th St,30.2678147,-97.7412593,DOWNTOWN,Burger Joint
569,McDonald's,2114 W Slaughter Ln,30.174276127213886,-97.82662153244019,CHERRY CREEK,Fast Food Restaurant
570,Taco Cabana,9705 Manchaca Rd,30.175253511494713,-97.82229004174964,CHERRY CREEK,Taco Place
571,Popeyes Louisiana Kitchen,9718 Menchaca Rd,30.17506128705538,-97.82368401199786,CHERRY CREEK,Fried Chicken Joint
572,Sonic Drive-In,9708 Menchaca Rd,30.1755295006888,-97.8234920688373,CHERRY CREEK,Fast Food Restaurant
573,Rosa's Cafe & Tortilla Factory,509 W Slaughter Ln,30.1713294,-97.7990977,SLAUGHTER CREEK,Mexican Restaurant
574,Thundercloud Subs,1807 W Slaughter Ln,30.17119509999999,-97.8235529,SLAUGHTER CREEK,Sandwich Place
575,Burger King,1905 Slaughter,30.173244268637163,-97.82275646924973,SLAUGHTER CREEK,Fast Food Restaurant
576,Mami's Tacos,10106 Manchaca Rd,30.200341865163445,-97.80813023861508,CHERRY CREEK,Food Truck
577,wicked wings,Slaughter Ln,30.172669,-97.80079,SLAUGHTER CREEK,Wings Joint
578,Super Donuts,S 1st St,30.172260748704563,-97.8008873347602,SLAUGHTER CREEK,Donut Shop
579,DK Maria's Legendary Tex- Mex,1807 W Slaughter Ln,30.173209999999997,-97.821873,SLAUGHTER CREEK,Mexican Restaurant
580,El Pollo Rico,609 W Slaughter Ln,30.172674,-97.800602,SLAUGHTER CREEK,Latin American Restaurant
581,Donut Taco Palace II,1807 W Slaughter Ln,30.171114790184,-97.82431810068346,SLAUGHTER CREEK,Bakery
582,Papa Murphy's,2110 W Slaughter Ln Ste 176,30.1748257,-97.8241569,CHERRY CREEK,Pizza Place
583,Domino's Pizza,1807 W Slaughter Ln Ste 465,30.17157721187001,-97.82401894389295,SLAUGHTER CREEK,Pizza Place
584,China Dynasty,2110 W Slaughter Ln,30.174803853582176,-97.8270648251013,CHERRY CREEK,Chinese Restaurant
585,Filipino Asian Mart,615 W Slaughter Ln #110,30.172291421412098,-97.8009102761266,SLAUGHTER CREEK,Asian Restaurant
586,Ashley's Taco Trailer,7200 Manchaca Rd,30.199851,-97.808116,CHERRY CREEK,Taco Place
587,Biscuits + Groovy,10106 Manchaca Rd,30.17006775745458,-97.82542617003433,SOUTH BRODIE,Breakfast Spot
588,Local Yokel Food Truck,10212 Manchaca,30.16924285888672,-97.82640075683594,SOUTH BRODIE,Food Truck
589,Bar-B-Que Heaven,519 E 7th St,30.18576041678447,-97.79923167386295,DITTMAR--SLAUGHTER,Food Truck
590,"MWS BBQ ""n"" Catering",10106 Manchaca Rd,30.170152,-97.825672,SOUTH BRODIE,BBQ Joint
591,Hummus Cuisine,10106 Manchaca Rd,30.16991442210739,-97.82522678375244,SLAUGHTER CREEK,Restaurant
592,Rockadive,,30.170309,-97.825679,SOUTH BRODIE,Food Truck
593,Native South Food Park,10106 Manchaca Rd,30.170169541082164,-97.82537837073781,SOUTH BRODIE,Restaurant
594,goodfellers,10212 Manchaca Rd,30.1691837310791,-97.82640075683594,SOUTH BRODIE,Food Truck
595,McDonald's,12900 N Interstate 35,30.4140242,-97.6757636,GRACY WOODS,Fast Food Restaurant
596,Chick-fil-A,12901 I-35 N Service Road Bldg 14,30.414224,-97.6720867,TECH RIDGE,Fast Food Restaurant
597,McDonald's,13609 N Interstate 35,30.422562224061267,-97.67089607744771,TECH RIDGE,Fast Food Restaurant
598,In-N-Out Burger,"12431 N.,I 35",30.405134628325698,-97.67436367759231,TECH RIDGE,Fast Food Restaurant
599,Wings 'N More,1200 W Howard Ln,30.423974395617346,-97.66967126309979,TECH RIDGE,Wings Joint
600,P. Terry's Burger Stand,12901 N IH 35,30.41561690914067,-97.67217793745849,TECH RIDGE,Food Truck
601,Golden Corral,12509 N Lamar Blvd,30.40933548947605,-97.67724576944198,GRACY WOODS,Buffet
602,Panda Express,500 Canyon Ridge Dr,30.40671347104324,-97.67270595197706,TECH RIDGE,Chinese Restaurant
603,Chili's Grill & Bar,12901 North Interstate Highway 35,30.4172661,-97.67177889999999,TECH RIDGE,Tex-Mex Restaurant
604,Charm Korean BBQ,1200 W Howard Ln,30.425213,-97.6704,TECH RIDGE,Korean Restaurant
605,French Quarter Grille,13000 N Interstate 35,30.41207645330806,-97.67591478587995,GRACY WOODS,Cajun / Creole Restaurant
606,Lil Woodrow's (Tech Ridge),12601 Tech Ridge Blvd,30.40069365359379,-97.65792406116259,TECH RIDGE,American Restaurant
607,Schlotzsky's,500 Canyon Ridge Dr Ste G,30.403736145857945,-97.67395046664298,TECH RIDGE,Bakery
608,Buffalo Wild Wings,13000 N Interstate 35,30.411193537172128,-97.67508745193476,GRACY WOODS,Wings Joint
609,Freebirds World Burrito,"1100 Center Ridge Dr, Ste. 380",30.417827502582472,-97.67032116651535,TECH RIDGE,Mexican Restaurant
610,Panera Bread,"13000 North I-35 Frontage Road, Building 20",30.414638046223878,-97.67426289910492,GRACY WOODS,Bakery
611,Kublai Khan,12901 N Interstate 35 Ste 1200,30.4117401,-97.6724751,TECH RIDGE,Mongolian Restaurant
612,Salty Cargo,1700 W Parmer Ln #100,30.412343,-97.686637,GRACY WOODS,Hawaiian Restaurant
613,Baby Acapulco,13609 N Interstate 35,30.423151149197913,-97.67052189508566,TECH RIDGE,Mexican Restaurant
614,Red Robin Gourmet Burgers and Brews,13000 N Interstate 35 Bldg,30.41068328,-97.67529191,GRACY WOODS,Restaurant
615,Ka-Prow Thai & Sushi Bistro,1200 W Howard Ln Suite O,30.424562767482463,-97.66998582307171,TECH RIDGE,Thai Restaurant
616,Masala Wok,1100 Center Ridge Dr,30.41817011730875,-97.67035475253827,TECH RIDGE,Indian Restaurant
617,Johnny Carino's,12901 N. I-35 Service Rd. Northbound,30.41356,-97.67228,TECH RIDGE,Italian Restaurant
618,Arby's,13609 North I-35 Bldg 5,30.4211010289347,-97.6712448709076,TECH RIDGE,Fast Food Restaurant
619,Phò King,1021 E Parmer Ln,30.39850750295953,-97.65520548908748,TECH RIDGE,Vietnamese Restaurant
620,Durango Taco Truck,12482 N Lamar Blvd,30.407867604012345,-97.67850582845796,GRACY WOODS,Food Truck
621,Tsukimi,12400 N Interstate 35,30.403168,-97.675853,GRACY WOODS,Sushi Restaurant
622,Mod Pizza,500 West Canyon Ridge Drive,30.405436,-97.67391737,TECH RIDGE,Pizza Place
623,Jimmy John's,1100 Center Ridge Dr,30.417983732211685,-97.67049135106235,TECH RIDGE,Sandwich Place
624,Ho Ho Chinese BBQ,13000 N Interstate 35 Bldg 6,30.410299,-97.675836,GRACY WOODS,Chinese Restaurant
625,Whataburger,9300 S Interstate 35 Bldg H,30.16614742526119,-97.78797693932233,SLAUGHTER CREEK,Fast Food Restaurant
626,True Texas BBQ,8801 S Congress Ave,30.1689109,-97.7863311,DITTMAR--SLAUGHTER,BBQ Joint
627,SONIC Drive In,1805 E William Cannon Dr,30.1884256,-97.766864,BLUFF SPRINGS,Fast Food Restaurant
628,IHOP,8801 South Interstate Highway 35,30.16794681607219,-97.78413972498993,BLUFF SPRINGS,Breakfast Spot
629,Crazy Fruits,729 E Slaughter Ln Apt F,30.160559725205804,-97.77770091319174,SLAUGHTER CREEK,Snack Place
630,Don Dario's Cantina,8801 S Interstate 35,30.169909533579382,-97.78315933264388,BLUFF SPRINGS,Mexican Restaurant
631,Golden Corral Buffet & Grill,7300 IH 35 S Frontage Rd,30.18428,-97.7758411,DITTMAR--SLAUGHTER,Buffet
632,Tucci's Southside Subs,801 E William Cannon Dr,30.1900463412333,-97.7720856647075,DITTMAR--SLAUGHTER,Sandwich Place
633,Jet’s Pizza,8900 S Congress Ave,30.170609,-97.787738,DITTMAR--SLAUGHTER,Pizza Place
634,China Harbor Restaurant,801 E William Cannon Dr,30.189963897547113,-97.77381832891714,DITTMAR--SLAUGHTER,Asian Restaurant
635,East Buffet,6425 South Interstate 35 Frontage Road suite 165,30.19035,-97.76807,BLUFF SPRINGS,Indian Chinese Restaurant
636,Reel Popcorn,8708 S Congress Ave Ste 550,30.1713500805983,-97.78633900029861,DITTMAR--SLAUGHTER,Food
637,El Pollo Rico,1719 E William Cannon Dr,30.188621520996094,-97.76729583740234,BLUFF SPRINGS,Mexican Restaurant
638,La Moreliana,"1909 E William Cannon Dr, Austin, TX 78744",30.18783454878843,-97.7647629551819,BLUFF SPRINGS,Mexican Restaurant
639,South Side Sub,,30.190203264677898,-97.77022884631194,BLUFF SPRINGS,Bakery
640,Waffle House,7809 E Ben White Blvd,30.21881619,-97.68916309,SOUTHEAST,Breakfast Spot
641,Domino's Pizza,720 Bastrop Hwy Ste 101,30.233790440663256,-97.68538823942436,MONTOPOLIS,Pizza Place
642,Denny's,7619 E Ben White Blvd,30.21720739683725,-97.69179157912731,SOUTHEAST,Breakfast Spot
643,Javi's TexMex,7709 E Ben White Blvd,30.21777982407221,-97.68993069386717,SOUTHEAST,Taco Place
644,Honduras Food,,30.22237730280303,-97.68911189210482,MONTOPOLIS,Food Truck
645,SUBWAY,7709 E Ben White Blvd Ste 300,30.217731050885302,-97.68970874101481,SOUTHEAST,Sandwich Place
646,Tropical Smoothie Cafe,1078 Grove Blvd,30.23613929748535,-97.7048110961914,PLEASANT VALLEY,Café
647,Alonzo's Tacos,907 Montopolis Dr,30.23494837356254,-97.69667181663685,MONTOPOLIS,Taco Place
648,La Sabroza,Riveraide Dr,30.224545,-97.703421,MONTOPOLIS,Taco Place
649,Crazy Fruits Riverside,6100 E Riverside Dr Ste 104,30.22632695765423,-97.70576362608695,MONTOPOLIS,Mexican Restaurant
650,Pizza Hut,945 Highway,30.228765,-97.686872,MONTOPOLIS,Pizza Place
651,Microtel Inn Breakfast Area,Microtel Inn Austin,30.216699,-97.690165,SOUTHEAST,Breakfast Spot
652,Muck-N-Dave's Texas BBQ,1603 S Congress St,30.225989798744823,-97.6948316697372,MONTOPOLIS,Food Truck
653,G's 183 Pit Stop,2510 US Highway 183 S,30.223654289403147,-97.68376890682912,DEL VALLE,Food Truck
654,Cocinita La Dona,1710 Montopolis Dr,30.226802000000003,-97.702515,MONTOPOLIS,Mexican Restaurant
655,Casa Garcia's Mexican Restaurant,1901 W William Cannon Dr,30.202229726369616,-97.80637882138303,CHERRY CREEK,Mexican Restaurant
656,La Posada Mexican Restaurant,6800 West Gate Blvd #143,30.20827816982041,-97.81535041377535,GARRISON PARK,Mexican Restaurant
657,Short Stop,Manchaca,30.20264680771355,-97.8072418646733,CHERRY CREEK,Fast Food Restaurant
658,Shaved Ice Island,,30.207474428861797,-97.8166210208006,CHERRY CREEK,Food Truck
659,Me Con Bistro,3421 W William Cannon Dr Ste 101,30.21276607773379,-97.83003828699226,CHERRY CREEK,Asian Restaurant
660,Taco Bell,3421 W William Cannon Dr,30.212905362913883,-97.82947769577672,CHERRY CREEK,Fast Food Restaurant
661,China Hill,2800 W William Cannon Dr,30.20832281285606,-97.81735845883591,GARRISON PARK,Chinese Restaurant
662,Cicis,1901 W William Cannon Dr Ste 107,30.20181116450866,-97.8051146708666,CHERRY CREEK,Pizza Place
663,Church's Chicken,"1945 W. William Cannon-St, 190",30.202453017339298,-97.80663092633603,CHERRY CREEK,Fried Chicken Joint
664,Bamboo Bistro,6818 West Gate Blvd,30.207649043418385,-97.8155591485338,GARRISON PARK,Asian Restaurant
665,Hao Hao Restaurant,1901 W William Cannon Dr,30.201454847364896,-97.80554393393707,CHERRY CREEK,Chinese Restaurant
666,Cuba512,6800 West Gate Blvd #112,30.20897966452286,-97.81567528915167,GARRISON PARK,Cuban Restaurant
667,Pizza Hut,1901 W William Cannon Dr Ste 172,30.2023901,-97.8058783,CHERRY CREEK,Pizza Place
668,Beto's Mexican Restaurant,1940 W William Cannon Dr,30.202959,-97.805907,GARRISON PARK,Mexican Restaurant
669,BANTHAI Express,7612 Brodie Ln,30.206951468070383,-97.835593521595,BRODIE LANE,Thai Restaurant
670,Cafe Malta,3421 W William Cannon Dr,30.212986200855415,-97.83043928342192,CHERRY CREEK,Mediterranean Restaurant
671,Panera Bread,2805 Bee Caves Rd,30.2703834,-97.789778,BARTON CREEK MALL,Bakery
672,Tacodeli,1500B Spyglass Dr,30.258312343129425,-97.78766475992212,BARTON HILLS,Taco Place
673,TLC Austin,1100 S Lamar Blvd Unit 1150,30.25585592218197,-97.76293393000275,ZILKER,Seafood Restaurant
674,Salt Traders Coastal Cooking,,30.265436,-97.780993,BARTON HILLS,Seafood Restaurant
675,Snooze,1700 S Lamar Blvd,30.250900423307684,-97.76580310880064,ZILKER,Breakfast Spot
676,ThoroughBread,1709 Bluebonnet Ln,30.254368674141258,-97.77204126119614,ZILKER,Bakery
677,Barlata,1500 S Lamar Blvd,30.252468,-97.764229,ZILKER,Tapas Restaurant
678,El Naranjo,,30.243187,-97.78119,SOUTH LAMAR,Mexican Restaurant
679,Wholly Cow Burgers,3010 S Lamar Blvd,30.24275418834798,-97.78389771903254,BARTON HILLS,Burger Joint
680,Papalote Taco House,2803 S Lamar Blvd,30.243704694953944,-97.78206312484043,SOUTH LAMAR,Taco Place
681,IHOP,1101 S Mo Pac Expy,30.26546164193319,-97.78149847580754,BARTON HILLS,Breakfast Spot
682,Hayley Cakes & Cookies,South Lamar,30.251009,-97.766036,ZILKER,Bakery
683,Michi Ramen,3005 S Lamar Blvd # D-114B,30.2415942255846,-97.78421531893609,SOUTH LAMAR,Japanese Restaurant
684,Phil's Icehouse,2901 S Lamar Blvd,30.24321523086543,-97.78241279744225,SOUTH LAMAR,Burger Joint
685,Combo Donut,1509 S Lamar Blvd,30.25234688603134,-97.76386318010171,ZILKER,Donut Shop
686,Chick-fil-A,10901 Research Blvd Svrd NB,30.4011046,-97.7449589,MCNEIL,Fast Food Restaurant
687,McDonald's,10732 Research Blvd,30.399157422174074,-97.7468911054462,JOLLYVILLE,Fast Food Restaurant
688,Velvet Taco,"11501 Rock Rose Ave, Ste 160",30.401252052283635,-97.72267976691732,NORTH BURNET,Taco Place
689,Shake Shack,11228 Domain Drive,30.399021359990435,-97.7258750283947,NORTH BURNET,Burger Joint
690,North Italia,11506 Century Oaks Ter Ste 124,30.402333927620102,-97.72587453428201,NORTH BURNET,Italian Restaurant
691,Gloria's Latin Cuisine,3309 Esperanza Xing Ste 100 Ste #,30.400106571562674,-97.7260021253545,NORTH BURNET,Latin American Restaurant
692,Taco Bell,2600 W Braker Ln,30.391305578490915,-97.72012430765866,NORTH BURNET,Fast Food Restaurant
693,Yucatán Tacos & More,2106 Braker Ln,30.39030810459097,-97.71959270860977,NORTH BURNET,Food Truck
694,Sushi Zushi,3221 Feathergrass Ct,30.39497780231956,-97.72762172567478,NORTH BURNET,Sushi Restaurant
695,True Food Kitchen,11410 Century Oaks Terrace Ste 100,30.4015393,-97.7268185,NORTH BURNET,New American Restaurant
696,Roaring Fork,10850 Stonelake Blvd,30.400931931821884,-97.7378534945488,MCNEIL,Steakhouse
697,Jinya Ramen Bar,3210 Esperanza Xing Ste 130,30.40030093862589,-97.72325467632456,NORTH BURNET,Noodle House
698,Taco Bell,4811 W Braker Ln,30.400230193182708,-97.7472239644238,JOLLYVILLE,Fast Food Restaurant
699,BJ's Restaurant & Brewhouse,10515 MoPac Expressway,30.3936342,-97.7314889,NORTH BURNET,American Restaurant
700,Maggiano's Little Italy,10910 Domain Dr,30.39554612,-97.72702851,NORTH BURNET,Italian Restaurant
701,CAVA,10808 Domain Dr,30.3934479,-97.7267906,NORTH BURNET,Mediterranean Restaurant
702,Fleming's Prime Steakhouse & Wine Bar,11600 Century Oaks Ter Ste 140,30.40317289631666,-97.72558139443655,NORTH BURNET,Steakhouse
703,Saltgrass Steak House,10614 Research Blvd,30.397634304091156,-97.74708598852158,JOLLYVILLE,Steakhouse
704,Wienerschnitzel,2512 W Braker Ln,30.391121851696276,-97.71954953463273,NORTH BURNET,Fast Food Restaurant
705,Garden Spot Deli,9415 Burnet Rd,30.378080098440204,-97.72505832817298,NORTH BURNET,Deli / Bodega
706,Whataburger,2801 W Anderson Ln,30.358684193833593,-97.73705720901489,ALLANDALE,Burger Joint
707,Pluckers Wing Bar,9070 Research Blvd Ste 201C,30.3727667,-97.7279452,NORTH SHOAL CREEK,Wings Joint
708,P. Terry's Burger Stand,8515 Burnet Rd,30.367045972521673,-97.72768642329058,WOOTEN,Burger Joint
709,Hopdoddy Burger Bar,2438 W Anderson Ln Ste 100,30.3576645,-97.73315,NORTH SHOAL CREEK,Burger Joint
710,Ramen Tatsu-ya,"8557 Research Blvd, #126",30.36110093445147,-97.71531358858363,NORTH LAMAR RUNDBERG,Ramen Restaurant
711,T22 Chicken Joint,7211 Burnet Rd,30.347975762690393,-97.7353354468362,CRESTVIEW,Fried Chicken Joint
712,Jim's Restaurant,9091 Research Blvd,30.374505802525725,-97.72755776984047,NORTH BURNET,Diner
713,Top Notch,7525 Burnet Rd,30.35115723274111,-97.73357272840857,CRESTVIEW,Burger Joint
714,Taco Cabana,8415 Research Blvd,30.358606492443077,-97.71577366963636,NORTH LAMAR RUNDBERG,Taco Place
715,Schlotzsky's,2545 W Anderson Ln,30.356343961020098,-97.73234593568372,ALLANDALE,Restaurant
716,Casa Chapala Mexican Grill & Cantina,9041 Research Blvd Ste 100,30.3737166,-97.7255182,NORTH BURNET,Mexican Restaurant
717,Chili's Grill & Bar,9070 Research Boulevard,30.3726587,-97.72802779999999,NORTH SHOAL CREEK,Tex-Mex Restaurant
718,Mi Tradición,8716 Research Blvd,30.363563,-97.719377,WOOTEN,Mexican Restaurant
719,Arby's,8648 Research Blvd,30.3633578233309,-97.7181589015071,WOOTEN,Fast Food Restaurant
720,Tacodeli,7301 Burnet Rd,30.348609721903664,-97.73512426512232,CRESTVIEW,Taco Place
721,Cabo Bob’s,,30.360691539304714,-97.740572184899,ALLANDALE,Burrito Place
722,Bartlett's,2408 W Anderson Ln,30.356800237752125,-97.73125290870667,NORTH SHOAL CREEK,Steakhouse
723,Ñoños Tacos #2,,30.369658,-97.71513,NORTH LAMAR RUNDBERG,Taco Place
724,OneTaco,2900 W Anderson Ln Ste 14,30.359555356601067,-97.7357896757482,NORTH SHOAL CREEK,Taco Place
725,Slab BBQ,9012 Research Blvd Ste C4,30.3713938,-97.7246446,WOOTEN,BBQ Joint
726,Jack Allen's Kitchen,3010 W Anderson Ln,30.36122966988891,-97.73984599409718,NORTH SHOAL CREEK,American Restaurant
727,Waterloo Ice House,8600 Burnet Rd,30.3679235,-97.7281608,NORTH SHOAL CREEK,American Restaurant
728,Tan My Restaurant,1601 Ohlen Rd,30.36380535726103,-97.7141859121093,NORTH LAMAR RUNDBERG,Vietnamese Restaurant
729,Enchiladas y Mas,1911 W Anderson Ln,30.354049392845702,-97.72683412674787,CRESTVIEW,Mexican Restaurant
730,Tarka Indian Kitchen,2525 W Anderson Ln Bldg 1 Ste 300,30.357091299311936,-97.73532224953567,ALLANDALE,Indian Restaurant
731,Madam Mam's,2700 W Anderson Ln,30.35958911009257,-97.73471126904451,NORTH SHOAL CREEK,Thai Restaurant
732,DeSano Pizzeria Napoletana,8000 Burnet Rd,30.358556642176346,-97.73068935614542,NORTH SHOAL CREEK,Pizza Place
733,Taco More,9400 Parkfield Dr,30.367959596748896,-97.70640349004402,NORTH LAMAR RUNDBERG,Taco Place
734,Chipotle Mexican Grill,2700 W Anderson Ln Ste 204,30.358628779794675,-97.73474162207276,NORTH SHOAL CREEK,Mexican Restaurant
735,Joe's Bakery & Coffee Shop,2305 E 7th St,30.261081335718135,-97.71663670729808,HOLLY,Mexican Restaurant
736,Suerte,1800 E 6th St,30.262167389165455,-97.72330021341786,EAST CESAR CHAVEZ,Mexican Restaurant
737,Justine's Brasserie,4710 E 5th St,30.25310742668006,-97.7005714890309,GOVALLE,French Restaurant
738,Juan in a Million,2300 E Cesar Chavez St,30.25525238677907,-97.71914893351808,HOLLY,Mexican Restaurant
739,Ramen Tatsu-ya,1600 E 6th St,30.263070914588642,-97.7264026159125,EAST CESAR CHAVEZ,Ramen Restaurant
740,Native Bar and Kitchen,807 E 4th St,30.2635626179709,-97.73465395818744,EAST CESAR CHAVEZ,Restaurant
741,Snooze,1109 E 5th St Ste 180,30.263505,-97.730906,EAST CESAR CHAVEZ,Breakfast Spot
742,Launderette,2115 Holly St,30.25193219641227,-97.72269000260006,HOLLY,Southern / Soul Food Restaurant
743,El Tacorrido,1701 E Riverside Dr,30.244473,-97.730576,RIVERSIDE,Taco Place
744,Flat Track Coffee,HOPE Farmers Market,30.25782335426162,-97.72707388320629,EAST CESAR CHAVEZ,Café
745,Veracruz All Natural,2505 Webberville Rd,30.263079772965966,-97.71377831697463,CENTRAL EAST AUSTIN,Taco Place
746,Las Trancas,1210 East Cesar Chavez St,30.25980956264854,-97.73193406766285,EAST CESAR CHAVEZ,Food Truck
747,De Nada Cantina,4715 E Cesar Chavez St,30.251472,-97.702173,GOVALLE,Taco Place
748,Lou’s Bodega,1900 E Cesar Chavez St,30.257305,-97.724361,HOLLY,Deli / Bodega
749,Sawyer & Co.,4827 E Cesar Chavez St,30.251360788700364,-97.7018011781627,GOVALLE,Cajun / Creole Restaurant
750,Via 313,1802 E 6th St,30.262124592225064,-97.723106711002,EAST CESAR CHAVEZ,Pizza Place
751,Kemuri Tatsu-ya,2713 E 2nd St,30.253866653153867,-97.71288074376646,HOLLY,Japanese Restaurant
752,Baby Acapulco,1705 S Lakeshore Blvd,30.24467336107199,-97.72984808359764,RIVERSIDE,Mexican Restaurant
753,Quickie Pickie,1208 E 11th St,30.268565308509515,-97.72731106939051,CENTRAL EAST AUSTIN,Sandwich Place
754,Gyu-Kaku Japanese BBQ,1211 E 5th St #100,30.263349,-97.730876,EAST CESAR CHAVEZ,Japanese Restaurant
755,Tacos Guerrero,96 N Pleasant Valley Rd,30.252693561153922,-97.71310744301182,HOLLY,Taco Place
756,Taqueria Morales,1415 W William Cannon Dr,30.200468583157917,-97.7997997469167,DITTMAR--SLAUGHTER,Food Truck
757,Taqueria Arandas,2038 W Stassney Ln,30.21647825351924,-97.79887161880544,WESTGATE,Mexican Restaurant
758,El Secreto De La Abuela #2,5700 Manchaca Rd,30.215445000000003,-97.79994,GARRISON PARK,Mexican Restaurant
759,Texas Ice House Sno Balls,7200 Manchaca Rd,30.199953,-97.808046,CHERRY CREEK,Food Truck
760,Ashley's Taco Trailer,Cherry Creek Plaza,30.21508628048502,-97.81406677612888,GARRISON PARK,Food Truck
761,Lebowski's Grill,2701 W William Cannon Dr,30.206590000000002,-97.816614,CHERRY CREEK,Burger Joint
762,Triple Wide @ Moontower,10212 Manchaca Rd,30.210112596087463,-97.7915233200306,GARRISON PARK,Food Truck
763,Shaklee Products Distributor-Adrian Opitz,13214 Mansfield Dr,30.390805,-97.894613,FOUR POINTS,Food
764,Taqueria Los Botellos,,30.389794,-97.890512,FOUR POINTS,Taco Place
765,Taqueria Escondida,Mountain View,30.396950777455658,-97.92619999753349,FOUR POINTS,Taco Place
766,Madras Dhaba,,30.389187,-97.891106,FOUR POINTS,Indian Restaurant
767,McDonald's,1030 Norwood Park Blvd,30.3404395,-97.6914697,HERITAGE HILLS,Fast Food Restaurant
768,Whataburger,9516 N Lamar Blvd,30.36530792526454,-97.6962306388532,NORTH LAMAR RUNDBERG,Burger Joint
769,Taco Bell,1016 E Anderson Ln,30.337010428152542,-97.69434090480412,HERITAGE HILLS,Fast Food Restaurant
770,El Tacorrido,9320 N Lamar Blvd,30.362932815867225,-97.69749005088661,NORTH LAMAR RUNDBERG,Mexican Restaurant
771,Pho Phong Lu’u,9200 N Lamar Blvd,30.36123275756836,-97.69856262207031,NORTH LAMAR RUNDBERG,Vietnamese Restaurant
772,SONIC Drive In,9325 N Lamar Blvd,30.362607799710702,-97.69667520122334,GEORGIAN ACRES,Fast Food Restaurant
773,Jack in the Box,814 E Rundberg Ln,30.357834797978807,-97.68663704395289,WINDSOR HILLS,Fast Food Restaurant
774,Shipley Do-Nuts,"1045 Norwood Park Blvd,",30.337627,-97.692694,HERITAGE HILLS,Donut Shop
775,SeoulJu Korean Kitchen & Bar,9515 N Lamar Blvd Ste 230,30.36471,-97.6945,NORTH LAMAR,Korean Restaurant
776,Tropicana Cuban Restaurant,9616 N Lamar Blvd #141,30.366540429061754,-97.69608547906677,NORTH LAMAR RUNDBERG,Cuban Restaurant
777,Usta Kababgy,9717 N Lamar Blvd Unit C2,30.365496,-97.695325,NORTH LAMAR,Middle Eastern Restaurant
778,Fujian Grand China Buffet,8709 N Interstate 35,30.350427359221612,-97.69204193990343,HERITAGE HILLS,Chinese Restaurant
779,Little Caesars Pizza,"1030 NORWOOD PARK BLVD, SUITE 414",30.340800634643415,-97.691728246213,HERITAGE HILLS,Pizza Place
780,Golden Chick,9600 N. Lamar,30.36559529062087,-97.69599314087453,NORTH LAMAR RUNDBERG,American Restaurant
781,Julie's Noodles,8557 Research Blvd #110,30.361164224285208,-97.71577382714347,NORTH LAMAR RUNDBERG,Chinese Restaurant
782,Taqueria Guadalajara,9207 N Lamar Blvd,30.36125576085529,-97.6976783391655,GEORGIAN ACRES,Mexican Restaurant
783,Pizza Hut,8500 N Lamar Blvd,30.353621268910747,-97.70587138834344,NORTH LAMAR RUNDBERG,Pizza Place
784,McDonald's,704 E Wonsley Dr,30.343787,-97.698984,GEORGIAN ACRES,Fast Food Restaurant
785,Taco Bell,9504 N Lamar Blvd,30.364776063269005,-97.69670742778011,NORTH LAMAR RUNDBERG,Fast Food Restaurant
786,Taqueria Arandinas,9616 N Lamar Blvd,30.366999,-97.696072,NORTH LAMAR RUNDBERG,Mexican Restaurant
787,El Nuevo Mexico,911 W Anderson Ln #120,30.348115770995857,-97.71450489890218,CRESTVIEW,Mexican Restaurant
788,"Tacos ""El Charly""",9306 N. Lamar Blvd.,30.361784,-97.698034,NORTH LAMAR RUNDBERG,Taco Place
789,Chick-Fil-A,,30.268492,-97.743821,DOWNTOWN,Fried Chicken Joint
790,1886 Café & Bakery,604 Brazos St,30.267783751991956,-97.74199363870909,DOWNTOWN,Breakfast Spot
791,Bar Chi Sushi,206 Colorado St,30.26518767144125,-97.74524302626102,DOWNTOWN,Sushi Restaurant
792,Whataburger,6301 W Parmer Ln Bldg 3,30.44524703936794,-97.74390314519508,POND SPRINGS,Burger Joint
793,Chipotle Mexican Grill,6301 W Parmer Ln Ste 201,30.445673621866533,-97.74415773958185,POND SPRINGS,Mexican Restaurant
794,Sangam Chettinad Indian Cuisne,6001 W Parmer Ln #140,30.442171,-97.74399,MCNEIL,South Indian Restaurant
795,Wendy’s,6247 McNeil Dr,30.441871846634886,-97.74658553303652,MCNEIL,Fast Food Restaurant
796,Sunflower,,30.441644,-97.745414,MCNEIL,Vietnamese Restaurant
797,Chi'lantro,6301 W Parmer Ln,30.44541,-97.74405,POND SPRINGS,Korean Restaurant
798,Schlotzsky's,6301 W Parmer Ln Ste 608,30.444145485662375,-97.74403561350493,POND SPRINGS,Restaurant
799,Sip Saam,,30.445341161225056,-97.74432457737922,POND SPRINGS,Thai Restaurant
800,SUBWAY,6221 McNeil Dr Ste. 240,30.44447469738013,-97.74546706691433,POND SPRINGS,Sandwich Place
801,Smokey Mo's BBQ,6001 W Parmer Ln,30.441700450125374,-97.74498330953234,MCNEIL,BBQ Joint
802,Egg Roll Express,6301 W Parmer Ln,30.445665856256404,-97.74399733299633,POND SPRINGS,Asian Restaurant
803,La Feria,,30.444720912212862,-97.74424696965862,POND SPRINGS,Mexican Restaurant
804,McDonald's,6010 W Parmer Ln,30.44358,-97.741409,MCNEIL,Fast Food Restaurant
805,Caffè Macs PL02,,30.433963168560936,-97.73441108594021,MCNEIL,Cafeteria
806,Cinnabon,6301 W Parmer Ln Ste Parmer,30.444470131598493,-97.74546026754903,POND SPRINGS,Bakery
807,Muro’s Pizza,,30.44546,-97.744368,POND SPRINGS,Pizza Place
808,Cafe Macs Coffee Bar,,30.43406,-97.736058,MCNEIL,Café
809,Sangam,,30.441916,-97.743791,MCNEIL,Indian Restaurant
810,Caffè Macs - Parmer Lane 5,,30.43460245097058,-97.73539369604721,MCNEIL,Cafeteria
811,Vamonos,4807 Airport Blvd,30.308466914531238,-97.71530985832213,NORTH LOOP,Tex-Mex Restaurant
812,Ski Shores Waterfront Cafe,2905 Pearce Rd,30.333487165687544,-97.82274337019375,MANSFIELD--RIVER PLACE,American Restaurant
813,Jack Allen’s Kitchen,N Capital of Texas Hwy,30.335297968372593,-97.80742043459321,MANSFIELD--RIVER PLACE,American Restaurant
814,Jade Restaurant,"3801 N Capital of Texas Hwy, C200",30.335265447937537,-97.80459053848637,MANSFIELD--RIVER PLACE,Restaurant
815,Maudie's Milagro,3801 N Capital of Texas Hwy,30.3359123,-97.80457050000001,MANSFIELD--RIVER PLACE,Mexican Restaurant
816,360 UNO,3801 N Capital of Texas Hwy,30.336735909231255,-97.80388358714978,HIGHLAND PARK,Italian Restaurant
817,Tuscany@360 Cafe & Market,3310 N Capital of Texas Hwy,30.331431575452193,-97.80995884853884,MANSFIELD--RIVER PLACE,Café
818,Paris In a Bite,,30.335591,-97.804517,MANSFIELD--RIVER PLACE,Bakery
819,Slab BBQ,,30.33842942070568,-97.80697272482965,MANSFIELD--RIVER PLACE,Food Truck
820,The Bacon Bus,,30.336173495735217,-97.80717980159518,MANSFIELD--RIVER PLACE,Food Truck
821,ALC Steaks on Tour,,30.338363516406364,-97.80723289829922,MANSFIELD--RIVER PLACE,Food Truck
822,Evil Weiner,,30.33587846803262,-97.80696741517696,MANSFIELD--RIVER PLACE,Food Truck
823,Pizza Gallery,3801 N Capital of Texas Hwy,30.336194,-97.803965,HIGHLAND PARK,Pizza Place
824,Subway,"3600 N. Capital of Texas Hwy, Building A, Suite 140",30.334318425018893,-97.80830960615157,MANSFIELD--RIVER PLACE,Sandwich Place
825,Allstar Burger,3801 N Capital of Texas Hwy Ste A180,30.335333784603844,-97.80537319075438,MANSFIELD--RIVER PLACE,Burger Joint
826,Austin Java at Tuscany @ 360,3310 N Capital of Texas Hwy,30.331384653092968,-97.8099495380923,MANSFIELD--RIVER PLACE,Café
827,Joann’s Fine Foods,1220 S Congress Ave,30.251499002257283,-97.74911523088265,BOULDIN CREEK,Diner
828,Shake Shack,1100 S Lamar Blvd,30.25588504782976,-97.76177020175025,ZILKER,Burger Joint
829,Coat & Thai,,30.263692,-97.762919,ZILKER,Thai Restaurant
830,Mi Rancho Meat Market,1095 Windy Hill Road,30.027219439870418,-97.84448283941121,ONION CREEK,Mexican Restaurant
831,Schlotzsky's,19350 N Interstate 35 Frontage Rd,30.02724042952871,-97.84448559560532,ONION CREEK,Restaurant
832,Burger King,18600 Ih-35 Frontage Rd,30.03670501728765,-97.84629419445992,ONION CREEK,Fast Food Restaurant
833,Cinnabon,19350 Interstate 35,30.028039,-97.851761,ONION CREEK,Bakery
834,Josie's Cakes,,30.028300825149167,-97.83970366678375,ONION CREEK,Bakery
835,Laredo Taco Company,19350 Interstate 35,30.028153337204817,-97.85165096733454,ONION CREEK,Restaurant
836,Maverick Healthcare Outfitters,"210 Brand Lane, Stafford,TX",30.024599684079536,-97.85189867019653,ONION CREEK,American Restaurant
837,Hardihood's,,30.02953,-97.853188,ONION CREEK,American Restaurant
838,Waffle House,8800 US-290,30.329074,-97.657771,WALNUT CREEK--PIONEER HILL,Breakfast Spot
839,SUBWAY,9207 E Highway 290,30.328197479248047,-97.65477752685547,LBJ,Sandwich Place
840,Buffalo Wild Wings,901 Little Texas Ln Ste D,30.19690241664319,-97.76766657829285,SWEETBRIAR,Wings Joint
841,Sonic Drive-In,804 W Stassney Ln,30.2096692,-97.7836404,SOUTH MANCHACA,Fast Food Restaurant
842,Chili's Grill & Bar,701 East Stassney Lane,30.1991776,-97.76707180000001,SWEETBRIAR,Tex-Mex Restaurant
843,Li’l Nonna’s,440 E Saint Elmo Rd,30.215714799118118,-97.76197710552097,EAST CONGRESS,Food Truck
844,Umi Sushi Bar & Grill,5510 S Interstate 35 #400,30.200214210665614,-97.7632983403483,EAST CONGRESS,Sushi Restaurant
845,Burger King,1001 E Ben White Blvd,30.21673758569757,-97.75487713515764,EAST CONGRESS,Fast Food Restaurant
846,Krispy Kreme Doughnuts,701 E Stassney Ln,30.199702412375068,-97.76680863074853,SWEETBRIAR,Donut Shop
847,Trudy's South Star,901 Little Texas Ln Ste C,30.197185924047368,-97.76714609103917,SWEETBRIAR,Mexican Restaurant
848,Dimassi's Mediterranean,701 E Stassney Ln Ste B,30.200380325317383,-97.7688217163086,SWEETBRIAR,Mediterranean Restaurant
849,Chipotle Mexican Grill,610 E Stassney Ln Ste B,30.201279,-97.768482,EAST CONGRESS,Mexican Restaurant
850,DK Sushi,6400 S 1st St,30.20027258738503,-97.7858903372363,GARRISON PARK,Sushi Restaurant
851,Little Caesars Pizza,512 W Stassney Ln,30.209190862623398,-97.78051428100434,WEST CONGRESS,Pizza Place
852,Pollo Rico,730 W Stassney Ln,30.208908739071543,-97.78160803540428,SOUTH MANCHACA,Mexican Restaurant
853,1st Wok,603 W Stassney Ln,30.207859797467457,-97.7810045548568,SWEETBRIAR,Chinese Restaurant
854,Wham Bam,4329 S Congress Ave,30.218719215607763,-97.76646635742229,EAST CONGRESS,Food Truck
855,Texas Land & Cattle,5511 South Interstate Hwy 35 Bldg C,30.19969714531562,-97.76515402252022,EAST CONGRESS,Steakhouse
856,Chipotle Mexican Grill,5000 W Slaughter Ln Bldg 3,30.2005085,-97.8640217,BRODIE LANE,Mexican Restaurant
857,Wendy’s,5000 W Slaughter Ln,30.200107329347603,-97.86349363626414,BRODIE LANE,Fast Food Restaurant
858,Sweet Caroline's,,30.20153755843716,-97.87067465451072,VILLAGE AT WESTERN OAKS,Food Truck
859,Which Wich? Superior Sandwiches,5000 W Slaughter Ln,30.20062260147371,-97.86483173485306,BRODIE LANE,Sandwich Place
860,BurgerFi,5701 West Slaughter Lane,30.2005968,-97.86903686,VILLAGE AT WESTERN OAKS,Burger Joint
861,zpizza,5701 W Slaughter Ln Bldg A160,30.200668906976357,-97.8699154462486,VILLAGE AT WESTERN OAKS,American Restaurant
862,Kid Spa Austin - Circle C Ranch,5700 W Slaughter Lane,30.20159169005794,-97.86921577116391,VILLAGE AT WESTERN OAKS,Restaurant
863,Hut's Hamburgers,,30.202303,-97.66494,BERGSTROM,Restaurant
864,Second Bar + Kitchen,3600 Presidential Blvd,30.20208815916348,-97.66596292649267,BERGSTROM,American Restaurant
865,Whataburger,2901 Spirit of Texas Dr #100,30.2107589,-97.667504,BERGSTROM,Burger Joint
866,Caffe Medici,,30.202307,-97.663339,BERGSTROM,Café
867,24 Diner,3600 Presidential Blvd,30.202238,-97.663955,BERGSTROM,Diner
868,Peached Tortilla,,30.202025960962192,-97.66621501537598,BERGSTROM,Taco Place
869,Parkside,3600 Presidential Blvd,30.202166,-97.66286,BERGSTROM,Restaurant
870,Los Jasmines,2463 E State Highway 71 Service Rd.,30.213787405462128,-97.65938418233536,DEL VALLE,Mexican Restaurant
871,Jack in the Box,2517 E Highway 71,30.213027,-97.6575883,DEL VALLE,Fast Food Restaurant
872,Auntie Anne's,3600 Presidential Blvd Ste 204,30.202161113874876,-97.66625676752483,BERGSTROM,Snack Place
873,El Michoacano,2701 Highway 71 East,30.21150016784668,-97.65496063232422,DEL VALLE,Mexican Restaurant
874,Salvation Pizza,,30.202208,-97.663833,BERGSTROM,Pizza Place
875,Nuevo Leon Austin Airport,3600 Presidential Blvd,30.202184741470116,-97.66635557283433,BERGSTROM,Mexican Restaurant
876,SUBWAY,2401 Highway 71 E,30.21458263245714,-97.66091060880636,DEL VALLE,Sandwich Place
877,ThunderCloud Subs,"3600 Presidential Blvd, Between Gates 6 And 7",30.20215950488806,-97.66601135553196,BERGSTROM,Sandwich Place
878,Ray’s Street Side,,30.202061,-97.666275,BERGSTROM,Taco Place
879,Twist Of Spice,,30.210638,-97.667748,BERGSTROM,Mexican Restaurant
880,Hoover's Cooking,3600 Presidential Blvd,30.20221651739235,-97.66625979001466,BERGSTROM,Southern / Soul Food Restaurant
881,Barton Springs Food Truck Park,,30.202313607672888,-97.66339721369214,BERGSTROM,Food Truck
882,Hills Cafe @ ABIA,Presidential Blvd,30.202188773213525,-97.6663711020111,BERGSTROM,Burger Joint
883,White Taco Trailer,"Texas 71, Del Valle, TX 78617",30.210372024283675,-97.65282240370826,DEL VALLE,Mexican Restaurant
884,The Taco Stop,,30.20224191400351,-97.66567575071446,BERGSTROM,Food Truck
885,The Creeks Restaurant,9515 Hotel Dr,30.211599192643053,-97.66396949043221,BERGSTROM,American Restaurant
886,SUBWAY / TacoN Mama,2901 Spirit of Texas Dr,30.210751000000002,-97.667525,BERGSTROM,Sandwich Place
887,The Black Forest,1615 Crozier Ln,30.221455,-97.66207,DEL VALLE,German Restaurant
888,Fig & Plum,Austin Bergstrom International Airport,30.201835,-97.665887,BERGSTROM,Taco Place
889,Whataburger,13235 Ranch Rd 620 N,30.46955598110449,-97.79067010011147,AVERY RANCH--LAKELINE,Burger Joint
890,Slap Box Pizzicheria,,30.487965,-97.77021,AVERY RANCH--LAKELINE,Pizza Place
891,Taco Bell,9900 W Parmer Ln Ste C,30.48665213885233,-97.77013526608825,AVERY RANCH--LAKELINE,Fast Food Restaurant
892,Arby's,13201 Ranch Road 620 N,30.469388,-97.790069,AVERY RANCH--LAKELINE,Fast Food Restaurant
893,Papa John's Pizza,9222 W Parmer Ln Ste D,30.47837187478048,-97.76490087770196,AVERY RANCH--LAKELINE,Pizza Place
894,Thai Lada,8701 W Parmer Ln Apt 1125,30.467652812157148,-97.761576334788,POND SPRINGS,Thai Restaurant
895,Subprabhat,9225 W Parmer Ln Ste 108,30.47839013574815,-97.76647085064747,AVERY RANCH--LAKELINE,Indian Restaurant
896,Central Donut,8516 Anderson Mill Rd #105,30.45639913320809,-97.76732571404528,POND SPRINGS,Donut Shop
897,Twin Panda,9231 W Parmer Ln Ste 101,30.478643596504558,-97.76668839442142,AVERY RANCH--LAKELINE,Indonesian Restaurant
898,SUBWAY,9900 W Parmer Ln Ste 110A,30.486521711131896,-97.76950550154487,AVERY RANCH--LAKELINE,Sandwich Place
899,LifeCafe,13725 Ranch Road 620 N,30.472670814545612,-97.77416223799484,AVERY RANCH--LAKELINE,Café
900,Miyako Yakitori & Sushi,8701 W Parmer Ln Apt 2128,30.467967,-97.761554,POND SPRINGS,Sushi Restaurant
901,SUBWAY,8701 W Parmer Ln Apt 2127,30.468051656518035,-97.76181609818636,POND SPRINGS,Sandwich Place
902,State Farm Insurance Cafeteria,8900 Amberglen Blvd,30.471257923645265,-97.76265100573806,POND SPRINGS,Café
903,Morelia Mexican Grill,9900 W Parmer Ln,30.487103209852773,-97.7699651862901,AVERY RANCH--LAKELINE,Mexican Restaurant
904,P King,10001 W Parmer Ln,30.488269,-97.772129,AVERY RANCH--LAKELINE,Chinese Restaurant
905,Little Big City Bakery,8863 Anderson Mill Rd,30.453765869140625,-97.77296447753906,POND SPRINGS,Bakery
906,State Farm,8900 Amberglen Blvd,30.471199585525266,-97.76255329623908,POND SPRINGS,Cafeteria
907,Kit's Wings,8701,30.468033631255242,-97.76183383622546,POND SPRINGS,Wings Joint
908,Town & Country Snack Shack,13327 Villa Park Dr,30.463804999999997,-97.772314,POND SPRINGS,Snack Place
909,La Mancha Tex Mex Tavern,2203 Hancock Dr,30.322655228516865,-97.74066978854573,ROSEDALE,Mexican Restaurant
910,Chili's Grill & Bar,4420 North Lamar Boulevard,30.31331537,-97.73838755,ROSEDALE,Tex-Mex Restaurant
911,Taco Flats,5520 Burnet Rd #101,30.330841121124035,-97.74009780659031,ALLANDALE,Taco Place
912,Picnik,4801 Burnet Rd,30.318880849972338,-97.7390659601012,BRENTWOOD,Restaurant
913,Fonda San Miguel,2330 W North Loop Blvd,30.325255284872625,-97.74352691956638,ALLANDALE,Mexican Restaurant
914,El Tacorrido,5303 Burnet Rd,30.326593375728315,-97.73952243673934,BRENTWOOD,Taco Place
915,Sap's Fine Thai Cuisine,5800 Burnet Rd,30.333477249712047,-97.74087458994259,ALLANDALE,Thai Restaurant
916,Torchy's Tacos,5119 Burnet Rd,30.323369416059716,-97.73920141165945,BRENTWOOD,Taco Place
917,Oakmont Food Company,1106 W 38th St,30.305867,-97.744197,ROSEDALE,American Restaurant
918,The Peached Tortilla,5520 Burnet Road #100,30.3308151,-97.74022699999999,ALLANDALE,Asian Restaurant
919,Hopdoddy Burger Bar,4615 N Lamar Blvd Ste 307,30.3154649,-97.73462049999999,TRIANGLE STATE,Burger Joint
920,Hat Creek Burger Co.,"5400 Burnet Road,",30.328374,-97.740035,ALLANDALE,American Restaurant
921,Chez Zee,5406 Balcones Dr,30.336672999597088,-97.75792404196466,ALLANDALE,French Restaurant
922,Phil's Icehouse,5620 Burnet Rd,30.332178305799363,-97.74030089536767,ALLANDALE,Burger Joint
923,Thundercloud Subs,5401 Burnet Rd,30.328541193350283,-97.73953206089135,BRENTWOOD,Sandwich Place
924,Chi'lantro,5222 Burnet Rd,30.32473301088047,-97.74002795953423,ROSEDALE,Korean Restaurant
925,Chipotle Mexican Grill,4400 N Lamar Blvd Ste 101,30.31258234041304,-97.73861281575586,ROSEDALE,Mexican Restaurant
926,La Cocina de Consuelo,4516 Burnet Rd,30.31609505325826,-97.74141714437873,ROSEDALE,Mexican Restaurant
927,Olive & June,3411 Glenview Ave,30.307449798607802,-97.7510456265514,ROSEDALE,Italian Restaurant
928,Billy's On Burnet,2105 Hancock Dr,30.32201478845347,-97.73979074137199,ROSEDALE,Burger Joint
929,Buddy’s Burgers,9001 Cameron Rd Ste 101,30.34603,-97.676793,WALNUT CREEK--PIONEER HILL,Burger Joint
930,"Ken's Subs, Tacos & More",9408 Dessau Rd,30.351633368819456,-97.6759304974837,WINDSOR HILLS,Taco Place
931,Pollo Campero,907 E Saint Johns Ave,30.33135870245774,-97.70134716524267,ST. JOHNS,Mexican Restaurant
932,Luby's,1410 E. Anderson Ln.,30.334325,-97.688205,HERITAGE HILLS,Comfort Food Restaurant
933,Wendy’s,1418 E Anderson Ln,30.33369215477425,-97.68706031958573,HERITAGE HILLS,Fast Food Restaurant
934,Burger King,7105 N Interstate 35 Apt 35,30.3320498,-97.7035403,ST. JOHNS,Fast Food Restaurant
935,Taquerias Las Chivas,8624 N Lamar Blvd,30.355393,-97.70359599999999,NORTH LAMAR RUNDBERG,Mexican Restaurant
936,Domino's Pizza,9001 Cameron Rd,30.34644,-97.676688,WALNUT CREEK--PIONEER HILL,Pizza Place
937,Buddy's Mexican Grill,201 Cameron,30.34649378034,-97.67655847255084,WALNUT CREEK--PIONEER HILL,Tex-Mex Restaurant
938,Jack in the Box,8630 N Lamar Blvd,30.35558745075966,-97.70329356193537,NORTH LAMAR RUNDBERG,Fast Food Restaurant
939,Los Potrillos,9120 N Interstate 35,30.356803999999997,-97.689987,GEORGIAN ACRES,Mexican Restaurant
940,Taco Hot Taco Stand,Cameron,30.35048824452963,-97.67635936920186,HERITAGE HILLS,Mexican Restaurant
941,"Taqueria ""La Chilanguita""",408 E. Rundberg Ln Austin Tx 78753,30.359893798828125,-97.69032287597656,NORTH LAMAR,Taco Place
942,Burger Tex,220 E Anderson Ln,30.34363726105473,-97.70388873800381,GEORGIAN ACRES,Burger Joint
943,El Pollo Rico,,30.358411,-97.686586,WINDSOR HILLS,Mexican Restaurant
944,Donut4u,,30.350704651418788,-97.67664053909095,HERITAGE HILLS,Donut Shop
945,Swedish Hill Bakery & Cafe,1120 W 6th St,30.272626,-97.756505,OLD WEST AUSTIN,Bakery
946,Sushi Zushi,1611 W 5th St,30.274586183145995,-97.7646922692923,OLD WEST AUSTIN,Sushi Restaurant
947,Clark's Oyster Bar,1200 W 6th St,30.272920506352303,-97.75722727459727,OLD WEST AUSTIN,Seafood Restaurant
948,Lin Asian Bar + Dim Sum Restaurant,1203 W 6th St,30.27286216354746,-97.75797745504693,OLD WEST AUSTIN,Chinese Restaurant
949,El Arroyo,1624 W 5th St,30.274822137527654,-97.76464499974496,OLD WEST AUSTIN,Mexican Restaurant
950,Nightcap,1401 West 6th Street,30.273743197867365,-97.76045624614534,OLD WEST AUSTIN,American Restaurant
951,Bar Peached,1315 W. 6th St.,30.273454653374312,-97.75989177002383,OLD WEST AUSTIN,Asian Restaurant
952,The Soup Peddler,1112 N Lamar Blvd,30.276744,-97.752081,OLD WEST AUSTIN,Soup Place
953,Austin Land & Cattle,1205 N Lamar Blvd,30.277548955539082,-97.75082073573951,DOWNTOWN,Steakhouse
954,Cafe Josie,1200 W 6th St Ste B,30.273052914850457,-97.75721338441426,OLD WEST AUSTIN,Latin American Restaurant
955,Project Pollo,,30.268649,-97.724301,CENTRAL EAST AUSTIN,Vegetarian / Vegan Restaurant
956,Los Comales,2136 E 7th St,30.261855,-97.718274,CENTRAL EAST AUSTIN,Mexican Restaurant
957,El Chilito,2219 Manor Rd,30.284217765886744,-97.71839194323972,UPPER BOGGY CREEK,Taco Place
958,Patrizi's,2307 Manor Rd,30.28388612055031,-97.71724888948108,UPPER BOGGY CREEK,Italian Restaurant
959,Salty Sow,1917 Manor Rd,30.283913200545648,-97.72143560437746,UPPER BOGGY CREEK,American Restaurant
960,Old Thousand,1000 E 11th St Ste 150,30.26948950104357,-97.72981886173937,CENTRAL EAST AUSTIN,Chinese Restaurant
961,Mi Madre's Restaurant,2201 Manor Rd,30.28415541652378,-97.71899786947097,UPPER BOGGY CREEK,Mexican Restaurant
962,Rockstar Bagels,1900 Rosewood Ave,30.26987028556034,-97.71897041255951,ROSEWOOD,Bagel Shop
963,Short Stop,3811 Interstate 35 Frontage Rd,30.29547045092785,-97.71861667831914,UPPER BOGGY CREEK,Fast Food Restaurant
964,Mama Fu's Asian House,4700 W Guadalupe St Ste A5,30.3153313,-97.7329896,TRIANGLE STATE,Restaurant
965,MezzeMe Mediterranean Kitchen,"4700 W Guadalupe St Suite#9, The Triangle",30.315673202801236,-97.73348986292355,TRIANGLE STATE,Mediterranean Restaurant
966,Domino's Pizza,3701 Guadalupe St,30.302006,-97.738089,NORTH UNIVERSITY,Pizza Place
967,Culinary Dropout,11721 Rock Rose,30.403485640467423,-97.72175555950706,NORTH BURNET,New American Restaurant
968,Yard House,11800 Domain Blvd,30.404291579326603,-97.72140898801706,NORTH BURNET,American Restaurant
969,Dos Salsas,11301 Burnet Rd Bldg 1,30.396948,-97.71946,NORTH BURNET,Mexican Restaurant
970,Freebirds World Burrito,"11101 Burnet Rd, Ste. B130",30.3962168,-97.7195219,NORTH BURNET,Mexican Restaurant
971,Bakery Lorraine,,30.401648085533573,-97.7226861144592,NORTH BURNET,Bakery
972,Perry’s Steakhouse,11801 Domain Blvd,30.404769897460938,-97.72105407714844,NORTH BURNET,Steakhouse
973,Valentina’s Tex Mex BBQ,,30.387372,-97.718497,NORTH BURNET,BBQ Joint
974,Second Bar + Kitchen,3121 Palm Way Ste 101,30.40225765854869,-97.72116873918266,NORTH BURNET,American Restaurant
975,Doc B’s,3001 Palm Way Ste 120,30.40274313685957,-97.71976500749588,NORTH BURNET,Burger Joint
976,RE:FUEL,11601 Domain Dr,30.402772903442383,-97.72354125976562,NORTH BURNET,American Restaurant
977,Earl Campell’s Tacos and Texas Favorites,,30.201942,-97.666954,BERGSTROM,Taco Place
978,Salt Lick Bar-B-Que,3600 Presidential Blvd,30.201996167589094,-97.66778616614194,BERGSTROM,BBQ Joint
979,Haymaker,,30.20202,-97.667946,BERGSTROM,American Restaurant
980,Tacodeli,,30.202118087852234,-97.66848092964635,BERGSTROM,Taco Place
981,Annie's Cafe & Bar,3600 Presidential Blvd,30.20226784973351,-97.66992290221464,BERGSTROM,Café
982,Einstein Bros Bagels,3600 Presidential Blvd,30.20219488028972,-97.66924432224693,BERGSTROM,Bagel Shop
983,The Salt Lick Taco Bar,,30.202018,-97.666953,BERGSTROM,Taco Place
984,De Nada Tacos,South Terminal Austin,30.193453028255856,-97.67092726620494,BERGSTROM,Food Truck
985,Flyrite Chicken,,30.202173,-97.667773,BERGSTROM,Fried Chicken Joint
986,Taqueria Morelos,3100 US Highway 183 S,30.2048921585083,-97.68373489379883,SOUTHEAST,Mexican Restaurant
987,Fara Cafe,3600 Presidential Blvd,30.202369653043366,-97.66687241561367,BERGSTROM,Café
988,Hat Creek Burger Company,,30.202142,-97.667754,BERGSTROM,Burger Joint
989,MAD greens,3600 Presidential Blvd,30.201959,-97.666402,BERGSTROM,Salad Place
990,I Vini,,30.202191509237956,-97.67053998324985,BERGSTROM,Italian Restaurant
991,East Side Pies,,30.201422,-97.667062,BERGSTROM,Pizza Place
992,US food storage truck,7311 Decker Ln,30.295981,-97.620193,DECKER LAKE,Food Truck
993,Dan's Hamburgers,844 Airport Blvd,30.25849694077369,-97.6938085427315,GOVALLE,Burger Joint
994,Al Secreto De La Abuela,817 Airport Blvd,30.256128000000004,-97.692234,JOHNSTON TERRACE,Mexican Restaurant
